$GPGGA,151250,5200.511341,N,422.102935,E,1,19,0.7,67.3,M,,M,,*41
$GPGGA,151251,5200.51069,N,422.102847,E,1,17,0.7,66.8,M,,M,,*48
$GPGGA,151252,5200.510437,N,422.102925,E,1,17,0.7,65.9,M,,M,,*43
$GPGGA,151253,5200.510337,N,422.102812,E,1,15,0.8,64.9,M,,M,,*4C
$GPGGA,151254,5200.510076,N,422.102589,E,1,17,0.7,64.2,M,,M,,*44
$GPGGA,151255,5200.509997,N,422.102418,E,1,16,0.8,63.5,M,,M,,*4C
$GPGGA,151256,5200.510151,N,422.102356,E,1,18,0.7,62.1,M,,M,,*4C
$GPGGA,151257,5200.510174,N,422.102528,E,1,18,0.7,61.7,M,,M,,*40
$GPGGA,151258,5200.510085,N,422.102776,E,1,19,0.7,61.5,M,,M,,*4A
$GPGGA,151259,5200.51016,N,422.103262,E,1,18,0.7,60.5,M,,M,,*40
$GPGGA,151300,5200.510448,N,422.103392,E,1,19,0.7,60,M,,M,,*48
$GPGGA,151301,5200.510829,N,422.103038,E,1,12,0.9,60.1,M,,M,,*45
$GPGGA,151302,5200.510874,N,422.102595,E,1,11,0.9,60.5,M,,M,,*4A
$GPGGA,151303,5200.51079,N,422.102184,E,1,14,0.8,60.2,M,,M,,*49
$GPGGA,151304,5200.510908,N,422.102512,E,1,15,0.8,59,M,,M,,*43
$GPGGA,151305,5200.51145,N,422.103107,E,1,17,0.8,58.4,M,,M,,*45
$GPGGA,151306,5200.512209,N,422.104183,E,1,16,0.8,58.9,M,,M,,*48
$GPGGA,151307,5200.512069,N,422.104299,E,1,15,0.9,58.6,M,,M,,*48
$GPGGA,151308,5200.512149,N,422.104242,E,1,14,0.9,58.8,M,,M,,*4D
$GPGGA,151309,5200.512882,N,422.104982,E,1,21,0.7,58.7,M,,M,,*42
$GPGGA,151310,5200.513133,N,422.104322,E,1,17,0.8,59.3,M,,M,,*47
$GPGGA,151311,5200.513583,N,422.104042,E,1,20,0.7,59.8,M,,M,,*4C
$GPGGA,151312,5200.513583,N,422.104042,E,1,19,0.7,59.8,M,,M,,*45
$GPGGA,151313,5200.513583,N,422.104042,E,1,17,0.8,59.8,M,,M,,*45
$GPGGA,151314,5200.513583,N,422.104042,E,1,18,0.7,59.8,M,,M,,*42
$GPGGA,151315,5200.513583,N,422.104042,E,1,18,0.8,59.8,M,,M,,*4C
$GPGGA,151316,5200.513583,N,422.104042,E,1,16,0.8,59.8,M,,M,,*41
$GPGGA,151317,5200.513583,N,422.104042,E,1,19,0.7,59.8,M,,M,,*40
$GPGGA,151318,5200.513583,N,422.104042,E,1,16,0.8,59.8,M,,M,,*4F
$GPGGA,151319,5200.513583,N,422.104042,E,1,16,0.8,59.8,M,,M,,*4E
$GPGGA,151320,5200.513583,N,422.104042,E,1,18,0.8,59.8,M,,M,,*4A
$GPGGA,151321,5200.513583,N,422.104042,E,1,18,0.7,59.8,M,,M,,*44
$GPGGA,151322,5200.513583,N,422.104042,E,1,17,0.8,59.8,M,,M,,*47
$GPGGA,151323,5200.513583,N,422.104042,E,1,15,0.8,59.8,M,,M,,*44
$GPGGA,151324,5200.513583,N,422.104042,E,1,14,0.9,59.8,M,,M,,*43
$GPGGA,151325,5200.513583,N,422.104042,E,1,16,0.8,59.8,M,,M,,*41
$GPGGA,151326,5200.513583,N,422.104042,E,1,18,0.7,59.8,M,,M,,*43
$GPGGA,151327,5200.513583,N,422.104042,E,1,17,0.8,59.8,M,,M,,*42
$GPGGA,151328,5200.513583,N,422.104042,E,1,17,0.8,59.8,M,,M,,*4D
$GPGGA,151329,5200.513583,N,422.104042,E,1,14,0.8,59.8,M,,M,,*4F
$GPGGA,151330,5200.513583,N,422.104042,E,1,14,0.8,59.8,M,,M,,*47
$GPGGA,151331,5200.513583,N,422.104042,E,1,15,0.8,59.8,M,,M,,*47
$GPGGA,151332,5200.513583,N,422.104042,E,1,16,0.8,59.8,M,,M,,*47
$GPGGA,151333,5200.513583,N,422.104042,E,1,17,0.7,59.8,M,,M,,*48
$GPGGA,151334,5200.513583,N,422.104042,E,1,19,0.7,59.8,M,,M,,*41
$GPGGA,151335,5200.513583,N,422.104042,E,1,17,0.8,59.8,M,,M,,*41
$GPGGA,151336,5200.513583,N,422.104042,E,1,20,0.7,59.8,M,,M,,*49
$GPGGA,151337,5200.513583,N,422.104042,E,1,21,0.7,59.8,M,,M,,*49
$GPGGA,151338,5200.513778,N,422.104386,E,1,19,0.7,60.4,M,,M,,*46
$GPGGA,151339,5200.513778,N,422.104386,E,1,16,0.8,60.4,M,,M,,*47
$GPGGA,151340,5200.513778,N,422.104386,E,1,16,0.9,60.4,M,,M,,*48
$GPGGA,151341,5200.513778,N,422.104386,E,1,22,0.7,60.4,M,,M,,*40
$GPGGA,151342,5200.513778,N,422.104386,E,1,21,0.7,60.4,M,,M,,*40
$GPGGA,151343,5200.513778,N,422.104386,E,1,18,0.7,60.4,M,,M,,*4B
$GPGGA,151344,5200.513778,N,422.104386,E,1,13,0.9,60.4,M,,M,,*49
$GPGGA,151345,5200.513778,N,422.104386,E,1,19,0.8,60.4,M,,M,,*43
$GPGGA,151346,5200.513778,N,422.104386,E,1,14,0.8,60.4,M,,M,,*4D
$GPGGA,151347,5200.513778,N,422.104386,E,1,21,0.7,60.4,M,,M,,*45
$GPGGA,151348,5200.513778,N,422.104386,E,1,20,0.7,60.4,M,,M,,*4B
$GPGGA,151349,5200.513778,N,422.104386,E,1,21,0.7,60.4,M,,M,,*4B
$GPGGA,151350,5200.513778,N,422.104386,E,1,13,0.9,60.4,M,,M,,*4C
$GPGGA,151351,5200.513778,N,422.104386,E,1,19,0.7,60.4,M,,M,,*49
$GPGGA,151352,5200.513778,N,422.104386,E,1,14,0.9,60.4,M,,M,,*49
$GPGGA,151353,5200.513778,N,422.104386,E,1,15,0.8,60.4,M,,M,,*48
$GPGGA,151354,5200.513778,N,422.104386,E,1,13,0.9,60.4,M,,M,,*48
$GPGGA,151355,5200.513778,N,422.104386,E,1,17,0.7,60.4,M,,M,,*43
$GPGGA,151356,5200.513434,N,422.104319,E,1,16,0.8,59.9,M,,M,,*44
$GPGGA,151357,5200.513434,N,422.104319,E,1,14,0.9,59.9,M,,M,,*46
$GPGGA,151358,5200.513434,N,422.104319,E,1,15,0.8,59.9,M,,M,,*49
$GPGGA,151359,5200.513434,N,422.104319,E,1,14,0.9,59.9,M,,M,,*48
$GPGGA,151400,5200.513434,N,422.104319,E,1,16,0.9,59.9,M,,M,,*41
$GPGGA,151401,5200.513434,N,422.104319,E,1,15,0.8,59.9,M,,M,,*42
$GPGGA,151402,5200.513434,N,422.104319,E,1,14,1,59.9,M,,M,,*49
$GPGGA,151403,5200.513434,N,422.104319,E,1,15,1,59.9,M,,M,,*49
$GPGGA,151404,5200.513434,N,422.104319,E,1,13,0.9,59.9,M,,M,,*40
$GPGGA,151405,5200.513434,N,422.104319,E,1,17,0.8,59.9,M,,M,,*44
$GPGGA,151406,5200.513434,N,422.104319,E,1,17,0.8,59.9,M,,M,,*47
$GPGGA,151407,5200.513434,N,422.104319,E,1,17,0.8,59.9,M,,M,,*46
$GPGGA,151408,5200.513434,N,422.104319,E,1,16,0.8,59.9,M,,M,,*48
$GPGGA,151409,5200.513434,N,422.104319,E,1,17,0.8,59.9,M,,M,,*48
$GPGGA,151410,5200.513434,N,422.104319,E,1,16,0.8,59.9,M,,M,,*41
$GPGGA,151411,5200.513434,N,422.104319,E,1,19,0.7,59.9,M,,M,,*40
$GPGGA,151412,5200.513434,N,422.104319,E,1,17,0.7,59.9,M,,M,,*4D
$GPGGA,151413,5200.513434,N,422.104319,E,1,14,0.9,59.9,M,,M,,*41
$GPGGA,151414,5200.513434,N,422.104319,E,1,19,0.7,59.9,M,,M,,*45
$GPGGA,151415,5200.513434,N,422.104319,E,1,17,0.8,59.9,M,,M,,*45
$GPGGA,151416,5200.513434,N,422.104319,E,1,18,0.8,59.9,M,,M,,*49
$GPGGA,151417,5200.513434,N,422.104319,E,1,17,0.8,59.9,M,,M,,*47
$GPGGA,151418,5200.513434,N,422.104319,E,1,19,0.8,59.9,M,,M,,*46
$GPGGA,151419,5200.513434,N,422.104319,E,1,14,1,59.9,M,,M,,*43
$GPGGA,151420,5200.513434,N,422.104319,E,1,15,1,59.9,M,,M,,*48
$GPGGA,151421,5200.513434,N,422.104319,E,1,13,1,59.9,M,,M,,*4F
$GPGGA,151422,5200.513434,N,422.104319,E,1,13,1,59.9,M,,M,,*4C
$GPGGA,151423,5200.513434,N,422.104319,E,1,14,1,59.9,M,,M,,*4A
$GPGGA,151424,5200.513434,N,422.104319,E,1,16,0.8,59.9,M,,M,,*46
$GPGGA,151425,5200.513473,N,422.104101,E,1,10,1.6,59.9,M,,M,,*46
$GPGGA,151426,5200.513473,N,422.104101,E,1,16,0.8,59.9,M,,M,,*4C
$GPGGA,151427,5200.513473,N,422.104101,E,1,13,1,59.9,M,,M,,*41
$GPGGA,151428,5200.513473,N,422.104101,E,1,12,1.1,59.9,M,,M,,*4E
$GPGGA,151429,5200.513473,N,422.104101,E,1,14,1.1,59.9,M,,M,,*49
$GPGGA,151430,5200.513473,N,422.104101,E,1,14,1.1,59.9,M,,M,,*41
$GPGGA,151431,5200.513473,N,422.104101,E,1,15,1,59.9,M,,M,,*40
$GPGGA,151432,5200.513473,N,422.104101,E,1,14,1.1,59.9,M,,M,,*43
$GPGGA,151433,5200.513473,N,422.104101,E,1,18,1,59.9,M,,M,,*4F
$GPGGA,151434,5200.513473,N,422.104101,E,1,18,1,59.9,M,,M,,*48
$GPGGA,151435,5200.513473,N,422.104101,E,1,18,1,59.9,M,,M,,*49
$GPGGA,151436,5200.513236,N,422.103962,E,1,16,1,59.5,M,,M,,*45
$GPGGA,151437,5200.513236,N,422.103962,E,1,16,1,59.5,M,,M,,*44
$GPGGA,151438,5200.513236,N,422.103962,E,1,16,1,59.5,M,,M,,*4B
$GPGGA,151439,5200.513236,N,422.103962,E,1,17,1,59.5,M,,M,,*4B
$GPGGA,151440,5200.513236,N,422.103962,E,1,13,1.1,59.5,M,,M,,*40
$GPGGA,151441,5200.513236,N,422.103962,E,1,15,1,59.5,M,,M,,*46
$GPGGA,151442,5200.513236,N,422.103962,E,1,17,0.8,59.5,M,,M,,*4E
$GPGGA,151443,5200.513236,N,422.103962,E,1,15,0.9,59.5,M,,M,,*4C
$GPGGA,151444,5200.513236,N,422.103962,E,1,18,0.8,59.5,M,,M,,*47
$GPGGA,151445,5200.513236,N,422.103962,E,1,19,0.8,59.5,M,,M,,*47
$GPGGA,151446,5200.513236,N,422.103962,E,1,16,0.8,59.5,M,,M,,*4B
$GPGGA,151447,5200.513236,N,422.103962,E,1,15,0.9,59.5,M,,M,,*48
$GPGGA,151448,5200.513236,N,422.103962,E,1,20,0.7,59.5,M,,M,,*4F
$GPGGA,151449,5200.513236,N,422.103962,E,1,18,0.8,59.5,M,,M,,*4A
$GPGGA,151450,5200.513236,N,422.103962,E,1,17,0.8,59.5,M,,M,,*4D
$GPGGA,151451,5200.513236,N,422.103962,E,1,18,0.8,59.5,M,,M,,*43
$GPGGA,151452,5200.513236,N,422.103962,E,1,19,0.8,59.5,M,,M,,*41
$GPGGA,151453,5200.513236,N,422.103962,E,1,20,0.9,59.5,M,,M,,*4B
$GPGGA,151454,5200.513236,N,422.103962,E,1,19,1,59.5,M,,M,,*4E
$GPGGA,151455,5200.513236,N,422.103962,E,1,19,1,59.5,M,,M,,*4F
$GPGGA,151456,5200.51308,N,422.104067,E,1,18,1,59.6,M,,M,,*4A
$GPGGA,151457,5200.51308,N,422.104067,E,1,17,0.9,59.6,M,,M,,*4C
$GPGGA,151458,5200.513124,N,422.103829,E,1,18,1,59.9,M,,M,,*41
$GPGGA,151459,5200.513124,N,422.103829,E,1,15,1.1,59.9,M,,M,,*4C
$GPGGA,151500,5200.513124,N,422.103829,E,1,17,1.1,59.9,M,,M,,*43
$GPGGA,151501,5200.513124,N,422.103829,E,1,18,0.9,59.9,M,,M,,*44
$GPGGA,151502,5200.513124,N,422.103829,E,1,19,0.7,59.9,M,,M,,*48
$GPGGA,151503,5200.513124,N,422.103829,E,1,20,0.7,59.9,M,,M,,*43
$GPGGA,151504,5200.513124,N,422.103829,E,1,19,0.8,59.9,M,,M,,*41
$GPGGA,151505,5200.513124,N,422.103829,E,1,19,0.8,59.9,M,,M,,*40
$GPGGA,151506,5200.513124,N,422.103829,E,1,18,0.9,59.9,M,,M,,*43
$GPGGA,151507,5200.513212,N,422.103435,E,1,18,0.8,60.2,M,,M,,*45
$GPGGA,151508,5200.513212,N,422.103435,E,1,16,1,60.2,M,,M,,*4D
$GPGGA,151509,5200.513212,N,422.103435,E,1,17,0.8,60.2,M,,M,,*44
$GPGGA,151510,5200.513304,N,422.103192,E,1,18,0.8,60.8,M,,M,,*47
$GPGGA,151511,5200.513304,N,422.103192,E,1,19,0.8,60.8,M,,M,,*47
$GPGGA,151512,5200.513304,N,422.103192,E,1,18,0.9,60.8,M,,M,,*44
$GPGGA,151513,5200.513304,N,422.103192,E,1,19,0.8,60.8,M,,M,,*45
$GPGGA,151514,5200.513573,N,422.103144,E,1,16,0.8,60.6,M,,M,,*4E
$GPGGA,151515,5200.513573,N,422.103144,E,1,17,0.9,60.6,M,,M,,*4F
$GPGGA,151516,5200.513224,N,422.103133,E,1,18,0.8,60.6,M,,M,,*47
$GPGGA,151517,5200.513224,N,422.103133,E,1,17,0.8,60.6,M,,M,,*49
$GPGGA,151518,5200.513224,N,422.103133,E,1,18,0.8,60.6,M,,M,,*49
$GPGGA,151519,5200.513224,N,422.103133,E,1,20,0.7,60.6,M,,M,,*4C
$GPGGA,151520,5200.513224,N,422.103133,E,1,20,0.7,60.6,M,,M,,*46
$GPGGA,151521,5200.513224,N,422.103133,E,1,19,0.8,60.6,M,,M,,*42
$GPGGA,151522,5200.513224,N,422.103133,E,1,18,0.8,60.6,M,,M,,*40
$GPGGA,151523,5200.513224,N,422.103133,E,1,19,0.8,60.6,M,,M,,*40
$GPGGA,151524,5200.513224,N,422.103133,E,1,19,0.9,60.6,M,,M,,*46
$GPGGA,151525,5200.513114,N,422.10302,E,1,18,0.9,60.2,M,,M,,*41
$GPGGA,151526,5200.513114,N,422.10302,E,1,18,0.8,60.2,M,,M,,*43
$GPGGA,151527,5200.513114,N,422.10302,E,1,21,0.7,60.2,M,,M,,*47
$GPGGA,151528,5200.513114,N,422.10302,E,1,20,0.7,60.2,M,,M,,*49
$GPGGA,151529,5200.513058,N,422.103047,E,1,17,0.9,59.7,M,,M,,*45
$GPGGA,151530,5200.513058,N,422.103047,E,1,19,0.7,59.7,M,,M,,*4D
$GPGGA,151531,5200.513058,N,422.103047,E,1,16,0.9,59.7,M,,M,,*4D
$GPGGA,151532,5200.513058,N,422.103047,E,1,15,0.9,59.7,M,,M,,*4D
$GPGGA,151533,5200.513058,N,422.103047,E,1,12,1.7,59.7,M,,M,,*44
$GPGGA,151534,5200.513058,N,422.103047,E,1,20,0.7,59.7,M,,M,,*43
$GPGGA,151535,5200.513058,N,422.103047,E,1,18,0.8,59.7,M,,M,,*46
$GPGGA,151536,5200.512815,N,422.103169,E,1,19,0.7,60,M,,M,,*4B
$GPGGA,151537,5200.512815,N,422.103169,E,1,18,0.8,60,M,,M,,*44
$GPGGA,151538,5200.512815,N,422.103169,E,1,16,0.8,60,M,,M,,*45
$GPGGA,151539,5200.512815,N,422.103169,E,1,13,0.9,60,M,,M,,*40
$GPGGA,151540,5200.512815,N,422.103169,E,1,18,0.8,60,M,,M,,*44
$GPGGA,151541,5200.512815,N,422.103169,E,1,15,0.8,60,M,,M,,*48
$GPGGA,151542,5200.512815,N,422.103169,E,1,18,0.8,60,M,,M,,*46
$GPGGA,151543,5200.512815,N,422.103169,E,1,16,0.8,60,M,,M,,*49
$GPGGA,151544,5200.512815,N,422.103169,E,1,17,0.7,60,M,,M,,*40
$GPGGA,151545,5200.512815,N,422.103169,E,1,17,0.7,60,M,,M,,*41
$GPGGA,151546,5200.512815,N,422.103169,E,1,16,0.7,60,M,,M,,*43
$GPGGA,151547,5200.512815,N,422.103169,E,1,17,0.7,60,M,,M,,*43
$GPGGA,151548,5200.512815,N,422.103169,E,1,17,0.7,60,M,,M,,*4C
$GPGGA,151549,5200.512815,N,422.103169,E,1,19,0.7,60,M,,M,,*43
$GPGGA,151550,5200.512815,N,422.103169,E,1,19,0.7,60,M,,M,,*4B
$GPGGA,151551,5200.512815,N,422.103169,E,1,17,0.7,60,M,,M,,*44
$GPGGA,151552,5200.512815,N,422.103169,E,1,17,0.7,60,M,,M,,*47
$GPGGA,151553,5200.512815,N,422.103169,E,1,16,0.8,60,M,,M,,*48
$GPGGA,151554,5200.512815,N,422.103169,E,1,17,0.7,60,M,,M,,*41
$GPGGA,151555,5200.512815,N,422.103169,E,1,16,0.8,60,M,,M,,*4E
$GPGGA,151556,5200.512469,N,422.104037,E,1,16,0.8,60.7,M,,M,,*40
$GPGGA,151557,5200.512469,N,422.104037,E,1,15,0.8,60.7,M,,M,,*42
$GPGGA,151558,5200.512469,N,422.104037,E,1,15,0.8,60.7,M,,M,,*4D
$GPGGA,151559,5200.512469,N,422.104037,E,1,15,0.8,60.7,M,,M,,*4C
$GPGGA,151600,5200.512469,N,422.104037,E,1,17,0.7,60.7,M,,M,,*4E
$GPGGA,151601,5200.512469,N,422.104037,E,1,13,1.2,60.7,M,,M,,*4F
$GPGGA,151602,5200.512469,N,422.104037,E,1,14,0.8,60.7,M,,M,,*40
$GPGGA,151603,5200.512469,N,422.104037,E,1,16,0.8,60.7,M,,M,,*43
$GPGGA,151604,5200.512469,N,422.104037,E,1,18,0.7,60.7,M,,M,,*45
$GPGGA,151605,5200.512469,N,422.104037,E,1,16,0.8,60.7,M,,M,,*45
$GPGGA,151606,5200.512469,N,422.104037,E,1,18,0.8,60.7,M,,M,,*48
$GPGGA,151607,5200.512469,N,422.104037,E,1,19,0.7,60.7,M,,M,,*47
$GPGGA,151608,5200.512469,N,422.104037,E,1,17,0.7,60.7,M,,M,,*46
$GPGGA,151609,5200.512469,N,422.104037,E,1,18,0.7,60.7,M,,M,,*48
$GPGGA,151610,5200.512469,N,422.104037,E,1,16,0.7,60.7,M,,M,,*4E
$GPGGA,151611,5200.512469,N,422.104037,E,1,17,0.8,60.7,M,,M,,*41
$GPGGA,151612,5200.512469,N,422.104037,E,1,18,0.8,60.7,M,,M,,*4D
$GPGGA,151613,5200.512469,N,422.104037,E,1,19,0.8,60.7,M,,M,,*4D
$GPGGA,151614,5200.512469,N,422.104037,E,1,18,0.8,60.7,M,,M,,*4B
$GPGGA,151615,5200.512469,N,422.104037,E,1,20,0.7,60.7,M,,M,,*4E
$GPGGA,151616,5200.512469,N,422.104037,E,1,18,0.8,60.7,M,,M,,*49
$GPGGA,151617,5200.512469,N,422.104037,E,1,18,0.8,60.7,M,,M,,*48
$GPGGA,151618,5200.512469,N,422.104037,E,1,19,0.8,60.7,M,,M,,*46
$GPGGA,151619,5200.512469,N,422.104037,E,1,20,0.7,60.7,M,,M,,*42
$GPGGA,151620,5200.512469,N,422.104037,E,1,20,0.7,60.7,M,,M,,*48
$GPGGA,151621,5200.512469,N,422.104037,E,1,12,1,60.7,M,,M,,*4E
$GPGGA,151622,5200.512469,N,422.104037,E,1,13,1,60.7,M,,M,,*4C
$GPGGA,151623,5200.512469,N,422.104037,E,1,19,0.7,60.7,M,,M,,*41
$GPGGA,151624,5200.512469,N,422.104037,E,1,16,0.8,60.7,M,,M,,*46
$GPGGA,151625,5200.512469,N,422.104037,E,1,20,0.7,60.7,M,,M,,*4D
$GPGGA,151626,5200.512469,N,422.104037,E,1,18,0.9,60.7,M,,M,,*4B
$GPGGA,151627,5200.512469,N,422.104037,E,1,19,0.7,60.7,M,,M,,*45
$GPGGA,151628,5200.512469,N,422.104037,E,1,20,0.7,60.7,M,,M,,*40
$GPGGA,151629,5200.512469,N,422.104037,E,1,17,0.7,60.7,M,,M,,*45
$GPGGA,151630,5200.512469,N,422.104037,E,1,18,0.7,60.7,M,,M,,*42
$GPGGA,151631,5200.512469,N,422.104037,E,1,18,0.7,60.7,M,,M,,*43
$GPGGA,151632,5200.512469,N,422.104037,E,1,18,0.7,60.7,M,,M,,*40
$GPGGA,151633,5200.512469,N,422.104037,E,1,18,0.8,60.7,M,,M,,*4E
$GPGGA,151634,5200.512469,N,422.104037,E,1,17,0.8,60.7,M,,M,,*46
$GPGGA,151635,5200.512469,N,422.104037,E,1,17,0.8,60.7,M,,M,,*47
$GPGGA,151636,5200.512469,N,422.104037,E,1,16,0.8,60.7,M,,M,,*45
$GPGGA,151637,5200.512469,N,422.104037,E,1,19,0.7,60.7,M,,M,,*44
$GPGGA,151638,5200.512469,N,422.104037,E,1,19,0.7,60.7,M,,M,,*4B
$GPGGA,151639,5200.512469,N,422.104037,E,1,19,0.7,60.7,M,,M,,*4A
$GPGGA,151640,5200.512469,N,422.104037,E,1,19,0.7,60.7,M,,M,,*44
$GPGGA,151641,5200.512469,N,422.104037,E,1,18,0.7,60.7,M,,M,,*44
$GPGGA,151642,5200.512469,N,422.104037,E,1,17,0.7,60.7,M,,M,,*48
$GPGGA,151643,5200.512469,N,422.104037,E,1,17,0.7,60.7,M,,M,,*49
$GPGGA,151644,5200.512469,N,422.104037,E,1,17,0.8,60.7,M,,M,,*41
$GPGGA,151645,5200.512469,N,422.104037,E,1,18,0.7,60.7,M,,M,,*40
$GPGGA,151646,5200.512469,N,422.104037,E,1,18,0.7,60.7,M,,M,,*43
$GPGGA,151647,5200.512469,N,422.104037,E,1,17,0.8,60.7,M,,M,,*42
$GPGGA,151648,5200.512469,N,422.104037,E,1,17,0.8,60.7,M,,M,,*4D
$GPGGA,151649,5200.512469,N,422.104037,E,1,17,0.8,60.7,M,,M,,*4C
$GPGGA,151650,5200.512469,N,422.104037,E,1,18,0.7,60.7,M,,M,,*44
$GPGGA,151651,5200.512469,N,422.104037,E,1,18,0.7,60.7,M,,M,,*45
$GPGGA,151652,5200.512469,N,422.104037,E,1,17,0.8,60.7,M,,M,,*46
$GPGGA,151653,5200.512469,N,422.104037,E,1,16,0.8,60.7,M,,M,,*46
$GPGGA,151654,5200.512469,N,422.104037,E,1,17,0.8,60.7,M,,M,,*40
$GPGGA,151655,5200.512646,N,422.103882,E,1,18,0.8,60.4,M,,M,,*43
$GPGGA,151656,5200.512646,N,422.103882,E,1,19,0.8,60.4,M,,M,,*41
$GPGGA,151657,5200.512646,N,422.103882,E,1,18,0.8,60.4,M,,M,,*41
$GPGGA,151658,5200.512646,N,422.103882,E,1,13,0.9,60.4,M,,M,,*44
$GPGGA,151659,5200.512646,N,422.103882,E,1,19,0.8,60.4,M,,M,,*4E
$GPGGA,151700,5200.512646,N,422.103882,E,1,20,0.8,60.4,M,,M,,*49
$GPGGA,151701,5200.512646,N,422.103882,E,1,20,0.8,60.4,M,,M,,*48
$GPGGA,151702,5200.512646,N,422.103882,E,1,19,0.8,60.4,M,,M,,*41
$GPGGA,151703,5200.512646,N,422.103882,E,1,21,0.7,60.4,M,,M,,*44
$GPGGA,151704,5200.512646,N,422.103882,E,1,16,0.8,60.4,M,,M,,*48
$GPGGA,151705,5200.512646,N,422.103882,E,1,18,0.8,60.4,M,,M,,*47
$GPGGA,151706,5200.512646,N,422.103882,E,1,17,0.9,60.4,M,,M,,*4A
$GPGGA,151707,5200.512646,N,422.103882,E,1,16,0.9,60.4,M,,M,,*4A
$GPGGA,151708,5200.512646,N,422.103882,E,1,14,1,60.4,M,,M,,*4F
$GPGGA,151709,5200.512646,N,422.103882,E,1,13,1.1,60.4,M,,M,,*48
$GPGGA,151710,5200.512646,N,422.103882,E,1,13,1.1,60.4,M,,M,,*40
$GPGGA,151711,5200.512646,N,422.103882,E,1,13,1,60.4,M,,M,,*40
$GPGGA,151712,5200.512646,N,422.103882,E,1,11,1.1,60.4,M,,M,,*40
$GPGGA,151713,5200.512646,N,422.103882,E,1,13,0.9,60.4,M,,M,,*4A
$GPGGA,151714,5200.512646,N,422.103882,E,1,14,0.9,60.4,M,,M,,*4A
$GPGGA,151715,5200.512646,N,422.103882,E,1,13,0.9,60.4,M,,M,,*4C
$GPGGA,151716,5200.512646,N,422.103882,E,1,14,0.9,60.4,M,,M,,*48
$GPGGA,151717,5200.512646,N,422.103882,E,1,14,0.9,60.4,M,,M,,*49
$GPGGA,151718,5200.512646,N,422.103882,E,1,18,0.7,60.4,M,,M,,*44
$GPGGA,151719,5200.512646,N,422.103882,E,1,17,0.8,60.4,M,,M,,*45
$GPGGA,151720,5200.512646,N,422.103882,E,1,18,0.7,60.4,M,,M,,*4F
$GPGGA,151721,5200.512646,N,422.103882,E,1,13,0.9,60.4,M,,M,,*4B
$GPGGA,151722,5200.512646,N,422.103882,E,1,17,0.8,60.4,M,,M,,*4D
$GPGGA,151723,5200.512646,N,422.103882,E,1,18,0.8,60.4,M,,M,,*43
$GPGGA,151724,5200.512646,N,422.103882,E,1,18,0.7,60.4,M,,M,,*4B
$GPGGA,151725,5200.512646,N,422.103882,E,1,19,0.7,60.4,M,,M,,*4B
$GPGGA,151726,5200.512646,N,422.103882,E,1,18,0.7,60.4,M,,M,,*49
$GPGGA,151727,5200.512646,N,422.103882,E,1,20,0.7,60.4,M,,M,,*43
$GPGGA,151728,5200.512646,N,422.103882,E,1,17,0.7,60.4,M,,M,,*48
$GPGGA,151729,5200.512646,N,422.103882,E,1,13,0.8,60.4,M,,M,,*42
$GPGGA,151730,5200.512646,N,422.103882,E,1,18,0.7,60.4,M,,M,,*4E
$GPGGA,151731,5200.512646,N,422.103882,E,1,16,0.8,60.4,M,,M,,*4E
$GPGGA,151732,5200.512646,N,422.103882,E,1,18,0.7,60.4,M,,M,,*4C
$GPGGA,151733,5200.512646,N,422.103882,E,1,19,0.7,60.4,M,,M,,*4C
$GPGGA,151734,5200.512646,N,422.103882,E,1,17,0.8,60.4,M,,M,,*4A
$GPGGA,151735,5200.512646,N,422.103882,E,1,22,0.7,60.4,M,,M,,*42
$GPGGA,151736,5200.512646,N,422.103882,E,1,20,0.7,60.4,M,,M,,*43
$GPGGA,151737,5200.512646,N,422.103882,E,1,21,0.7,60.4,M,,M,,*43
$GPGGA,151738,5200.512646,N,422.103882,E,1,22,0.7,60.4,M,,M,,*4F
$GPGGA,151739,5200.512646,N,422.103882,E,1,22,0.7,60.4,M,,M,,*4E
$GPGGA,151740,5200.512646,N,422.103882,E,1,19,0.8,60.4,M,,M,,*47
$GPGGA,151741,5200.512646,N,422.103882,E,1,17,0.8,60.4,M,,M,,*48
$GPGGA,151742,5200.512646,N,422.103882,E,1,17,0.8,60.4,M,,M,,*4B
$GPGGA,151743,5200.512646,N,422.103882,E,1,19,0.7,60.4,M,,M,,*4B
$GPGGA,151744,5200.512646,N,422.103882,E,1,20,0.7,60.4,M,,M,,*46
$GPGGA,151745,5200.512646,N,422.103882,E,1,17,0.8,60.4,M,,M,,*4C
$GPGGA,151746,5200.512646,N,422.103882,E,1,19,0.7,60.4,M,,M,,*4E
$GPGGA,151747,5200.512646,N,422.103882,E,1,18,0.7,60.4,M,,M,,*4E
$GPGGA,151748,5200.512646,N,422.103882,E,1,19,0.7,60.4,M,,M,,*40
$GPGGA,151749,5200.512646,N,422.103882,E,1,18,0.8,60.4,M,,M,,*4F
$GPGGA,151750,5200.512646,N,422.103882,E,1,20,0.7,60.4,M,,M,,*43
$GPGGA,151751,5200.512646,N,422.103882,E,1,20,0.7,60.4,M,,M,,*42
$GPGGA,151752,5200.512646,N,422.103882,E,1,19,0.7,60.4,M,,M,,*4B
$GPGGA,151753,5200.512646,N,422.103882,E,1,17,0.9,60.4,M,,M,,*4A
$GPGGA,151754,5200.512646,N,422.103882,E,1,15,1,60.4,M,,M,,*47
$GPGGA,151755,5200.512646,N,422.103882,E,1,18,0.8,60.4,M,,M,,*42
$GPGGA,151756,5200.512646,N,422.103882,E,1,19,0.7,60.4,M,,M,,*4F
$GPGGA,151757,5200.512646,N,422.103882,E,1,18,0.8,60.4,M,,M,,*40
$GPGGA,151758,5200.512646,N,422.103882,E,1,18,0.8,60.4,M,,M,,*4F
$GPGGA,151759,5200.512646,N,422.103882,E,1,20,0.7,60.4,M,,M,,*4A
$GPGGA,151800,5200.512646,N,422.103882,E,1,17,0.8,60.4,M,,M,,*42
$GPGGA,151801,5200.512646,N,422.103882,E,1,16,0.8,60.4,M,,M,,*42
$GPGGA,151802,5200.512646,N,422.103882,E,1,19,0.7,60.4,M,,M,,*41
$GPGGA,151803,5200.512646,N,422.103882,E,1,19,0.7,60.4,M,,M,,*40
$GPGGA,151804,5200.512646,N,422.103882,E,1,20,0.7,60.4,M,,M,,*4D
$GPGGA,151805,5200.512646,N,422.103882,E,1,17,0.8,60.4,M,,M,,*47
$GPGGA,151806,5200.512646,N,422.103882,E,1,17,0.8,60.4,M,,M,,*44
$GPGGA,151807,5200.512646,N,422.103882,E,1,19,0.7,60.4,M,,M,,*44
$GPGGA,151808,5200.512646,N,422.103882,E,1,18,0.7,60.4,M,,M,,*4A
$GPGGA,151809,5200.512646,N,422.103882,E,1,18,0.7,60.4,M,,M,,*4B
$GPGGA,151810,5200.512646,N,422.103882,E,1,18,0.7,60.4,M,,M,,*43
$GPGGA,151811,5200.512646,N,422.103882,E,1,16,0.8,60.4,M,,M,,*43
$GPGGA,151812,5200.512646,N,422.103882,E,1,18,0.8,60.4,M,,M,,*4E
$GPGGA,151813,5200.512646,N,422.103882,E,1,18,0.8,60.4,M,,M,,*4F
$GPGGA,151814,5200.512646,N,422.103882,E,1,17,0.8,60.4,M,,M,,*47
$GPGGA,151815,5200.512646,N,422.103882,E,1,19,0.8,60.4,M,,M,,*48
$GPGGA,151816,5200.512646,N,422.103882,E,1,19,0.8,60.4,M,,M,,*4B
$GPGGA,151817,5200.512646,N,422.103882,E,1,18,0.8,60.4,M,,M,,*4B
$GPGGA,151818,5200.512646,N,422.103882,E,1,19,0.8,60.4,M,,M,,*45
$GPGGA,151819,5200.512646,N,422.103882,E,1,20,0.7,60.4,M,,M,,*41
$GPGGA,151820,5200.512646,N,422.103882,E,1,21,0.7,60.4,M,,M,,*4A
$GPGGA,151821,5200.512646,N,422.103882,E,1,19,0.8,60.4,M,,M,,*4F
$GPGGA,151822,5200.512646,N,422.103882,E,1,20,0.8,60.4,M,,M,,*46
$GPGGA,151823,5200.512646,N,422.103882,E,1,20,0.8,60.4,M,,M,,*47
$GPGGA,151824,5200.512646,N,422.103882,E,1,18,0.8,60.4,M,,M,,*4B
$GPGGA,151825,5200.512646,N,422.103882,E,1,15,0.9,60.4,M,,M,,*46
$GPGGA,151826,5200.512646,N,422.103882,E,1,15,1,60.4,M,,M,,*4D
$GPGGA,151827,5200.512646,N,422.103882,E,1,15,0.9,60.4,M,,M,,*44
$GPGGA,151828,5200.512646,N,422.103882,E,1,15,0.8,60.4,M,,M,,*4A
$GPGGA,151829,5200.512646,N,422.103882,E,1,16,0.8,60.4,M,,M,,*48
$GPGGA,151830,5200.512646,N,422.103882,E,1,19,0.7,60.4,M,,M,,*40
$GPGGA,151831,5200.512646,N,422.103882,E,1,18,0.8,60.4,M,,M,,*4F
$GPGGA,151832,5200.512646,N,422.103882,E,1,19,0.7,60.4,M,,M,,*42
$GPGGA,151833,5200.512646,N,422.103882,E,1,18,0.8,60.4,M,,M,,*4D
$GPGGA,151834,5200.512646,N,422.103882,E,1,16,0.9,60.4,M,,M,,*45
$GPGGA,151835,5200.512646,N,422.103882,E,1,16,0.8,60.4,M,,M,,*45
$GPGGA,151836,5200.512646,N,422.103882,E,1,16,0.8,60.4,M,,M,,*46
$GPGGA,151837,5200.512646,N,422.103882,E,1,18,0.8,60.4,M,,M,,*49
$GPGGA,151838,5200.512646,N,422.103882,E,1,15,0.9,60.4,M,,M,,*4A
$GPGGA,151839,5200.512646,N,422.103882,E,1,14,0.9,60.4,M,,M,,*4A
$GPGGA,151840,5200.512646,N,422.103882,E,1,14,0.9,60.4,M,,M,,*44
$GPGGA,151841,5200.512646,N,422.103882,E,1,13,1,60.4,M,,M,,*4A
$GPGGA,151842,5200.512646,N,422.103882,E,1,19,0.8,60.4,M,,M,,*4A
$GPGGA,151843,5200.512646,N,422.103882,E,1,20,0.7,60.4,M,,M,,*4E
$GPGGA,151844,5200.512646,N,422.103882,E,1,19,0.8,60.4,M,,M,,*4C
$GPGGA,151845,5200.512646,N,422.103882,E,1,18,0.8,60.4,M,,M,,*4C
$GPGGA,151846,5200.512646,N,422.103882,E,1,18,0.8,60.4,M,,M,,*4F
$GPGGA,151847,5200.512646,N,422.103882,E,1,17,0.8,60.4,M,,M,,*41
$GPGGA,151848,5200.512646,N,422.103882,E,1,18,0.8,60.4,M,,M,,*41
$GPGGA,151849,5200.512646,N,422.103882,E,1,15,0.9,60.4,M,,M,,*4C
$GPGGA,151850,5200.512646,N,422.103882,E,1,16,0.9,60.4,M,,M,,*47
$GPGGA,151851,5200.512646,N,422.103882,E,1,15,0.9,60.4,M,,M,,*45
$GPGGA,151852,5200.512646,N,422.103882,E,1,16,0.9,60.4,M,,M,,*45
$GPGGA,151853,5200.512646,N,422.103882,E,1,16,0.9,60.4,M,,M,,*44
$GPGGA,151854,5200.512646,N,422.103882,E,1,17,0.9,60.4,M,,M,,*42
$GPGGA,151855,5200.512646,N,422.103882,E,1,19,0.8,60.4,M,,M,,*4C
$GPGGA,151856,5200.512646,N,422.103882,E,1,18,0.9,60.4,M,,M,,*4F
$GPGGA,151857,5200.512646,N,422.103882,E,1,19,0.9,60.4,M,,M,,*4F
$GPGGA,151858,5200.512646,N,422.103882,E,1,18,0.8,60.4,M,,M,,*40
$GPGGA,151859,5200.512646,N,422.103882,E,1,18,0.9,60.4,M,,M,,*40
$GPGGA,151900,5200.512646,N,422.103882,E,1,19,0.8,60.4,M,,M,,*4D
$GPGGA,151901,5200.512646,N,422.103882,E,1,19,0.8,60.4,M,,M,,*4C
$GPGGA,151902,5200.512646,N,422.103882,E,1,15,1,60.4,M,,M,,*4A
$GPGGA,151903,5200.512646,N,422.103882,E,1,19,0.8,60.4,M,,M,,*4E
$GPGGA,151904,5200.512646,N,422.103882,E,1,16,1,60.4,M,,M,,*4F
$GPGGA,151905,5200.512646,N,422.103882,E,1,15,1,60.4,M,,M,,*4D
$GPGGA,151906,5200.512646,N,422.103882,E,1,20,0.8,60.4,M,,M,,*41
$GPGGA,151907,5200.512646,N,422.103882,E,1,16,1,60.4,M,,M,,*4C
$GPGGA,151908,5200.512646,N,422.103882,E,1,17,0.8,60.4,M,,M,,*4B
$GPGGA,151909,5200.512646,N,422.103882,E,1,15,0.9,60.4,M,,M,,*49
$GPGGA,151910,5200.512646,N,422.103882,E,1,16,0.8,60.4,M,,M,,*43
$GPGGA,151911,5200.512646,N,422.103882,E,1,17,0.8,60.4,M,,M,,*43
$GPGGA,151912,5200.512646,N,422.103882,E,1,18,0.8,60.4,M,,M,,*4F
$GPGGA,151913,5200.512646,N,422.103882,E,1,19,0.8,60.4,M,,M,,*4F
$GPGGA,151914,5200.512646,N,422.103882,E,1,15,0.9,60.4,M,,M,,*45
$GPGGA,151915,5200.512646,N,422.103882,E,1,17,0.8,60.4,M,,M,,*47
$GPGGA,151916,5200.512646,N,422.103882,E,1,19,1,60.4,M,,M,,*43
$GPGGA,151917,5200.512646,N,422.103882,E,1,17,1,60.4,M,,M,,*4C
$GPGGA,151918,5200.512646,N,422.103882,E,1,15,1.1,60.4,M,,M,,*40
$GPGGA,151919,5200.512646,N,422.103882,E,1,14,1.2,60.4,M,,M,,*43
$GPGGA,151920,5200.512646,N,422.103882,E,1,17,1.1,60.4,M,,M,,*49
$GPGGA,151921,5200.512646,N,422.103882,E,1,15,0.9,60.4,M,,M,,*43
$GPGGA,151922,5200.512646,N,422.103882,E,1,18,0.8,60.4,M,,M,,*4C
$GPGGA,151923,5200.512646,N,422.103882,E,1,16,0.9,60.4,M,,M,,*42
$GPGGA,151924,5200.512646,N,422.103882,E,1,15,0.9,60.4,M,,M,,*46
$GPGGA,151925,5200.512646,N,422.103882,E,1,16,0.9,60.4,M,,M,,*44
$GPGGA,151926,5200.512646,N,422.103882,E,1,16,0.9,60.4,M,,M,,*47
$GPGGA,151927,5200.512646,N,422.103882,E,1,16,0.9,60.4,M,,M,,*46
$GPGGA,151928,5200.512646,N,422.103882,E,1,16,0.9,60.4,M,,M,,*49
$GPGGA,151929,5200.512646,N,422.103882,E,1,18,0.8,60.4,M,,M,,*47
$GPGGA,151930,5200.512646,N,422.103882,E,1,15,1.1,60.4,M,,M,,*4A
$GPGGA,151931,5200.512646,N,422.103882,E,1,15,0.9,60.4,M,,M,,*42
$GPGGA,151932,5200.512646,N,422.103882,E,1,13,1.1,60.4,M,,M,,*4E
$GPGGA,151933,5200.512646,N,422.103882,E,1,17,0.8,60.4,M,,M,,*43
$GPGGA,151934,5200.512646,N,422.103882,E,1,10,1.8,60.4,M,,M,,*42
$GPGGA,151935,5200.512646,N,422.103882,E,1,10,1.6,60.4,M,,M,,*4D
$GPGGA,151936,5200.512646,N,422.103882,E,1,11,1.4,60.4,M,,M,,*4D
$GPGGA,151937,5200.512646,N,422.103882,E,1,10,1.7,60.4,M,,M,,*4E
$GPGGA,151938,5200.512646,N,422.103882,E,1,18,0.8,60.4,M,,M,,*47
$GPGGA,151939,5200.512646,N,422.103882,E,1,13,1.1,60.4,M,,M,,*45
$GPGGA,151940,5200.512646,N,422.103882,E,1,17,1,60.4,M,,M,,*4E
$GPGGA,151941,5200.512646,N,422.103882,E,1,14,1.1,60.4,M,,M,,*4D
$GPGGA,151942,5200.512646,N,422.103882,E,1,17,1,60.4,M,,M,,*4C
$GPGGA,151943,5200.512646,N,422.103882,E,1,16,1,60.4,M,,M,,*4C
$GPGGA,151944,5200.512646,N,422.103882,E,1,16,1,60.4,M,,M,,*4B
$GPGGA,151945,5200.512646,N,422.103882,E,1,15,0.8,60.4,M,,M,,*40
$GPGGA,151946,5200.512646,N,422.103882,E,1,15,0.8,60.4,M,,M,,*43
$GPGGA,151947,5200.512646,N,422.103882,E,1,17,0.8,60.4,M,,M,,*40
$GPGGA,151948,5200.512646,N,422.103882,E,1,17,0.8,60.4,M,,M,,*4F
$GPGGA,151949,5200.512646,N,422.103882,E,1,17,0.8,60.4,M,,M,,*4E
$GPGGA,151950,5200.512646,N,422.103882,E,1,19,0.7,60.4,M,,M,,*47
$GPGGA,151951,5200.512646,N,422.103882,E,1,18,0.8,60.4,M,,M,,*48
$GPGGA,151952,5200.512646,N,422.103882,E,1,18,0.8,60.4,M,,M,,*4B
$GPGGA,151953,5200.512646,N,422.103882,E,1,19,0.7,60.4,M,,M,,*44
$GPGGA,151954,5200.512646,N,422.103882,E,1,20,0.7,60.4,M,,M,,*49
$GPGGA,151955,5200.512646,N,422.103882,E,1,20,0.7,60.4,M,,M,,*48
$GPGGA,151956,5200.512646,N,422.103882,E,1,20,0.7,60.4,M,,M,,*4B
$GPGGA,151957,5200.512646,N,422.103882,E,1,19,0.7,60.4,M,,M,,*40
$GPGGA,151958,5200.512646,N,422.103882,E,1,19,0.7,60.4,M,,M,,*4F
$GPGGA,151959,5200.512646,N,422.103882,E,1,19,0.8,60.4,M,,M,,*41
$GPGGA,152000,5200.512646,N,422.103882,E,1,17,0.8,60.4,M,,M,,*49
$GPGGA,152001,5200.512646,N,422.103882,E,1,16,0.9,60.4,M,,M,,*48
$GPGGA,152002,5200.512646,N,422.103882,E,1,17,0.8,60.4,M,,M,,*4B
$GPGGA,152003,5200.512646,N,422.103882,E,1,19,0.7,60.4,M,,M,,*4B
$GPGGA,152004,5200.512646,N,422.103882,E,1,18,0.8,60.4,M,,M,,*42
$GPGGA,152005,5200.512646,N,422.103882,E,1,19,0.8,60.4,M,,M,,*42
$GPGGA,152006,5200.512646,N,422.103882,E,1,21,0.7,60.4,M,,M,,*45
$GPGGA,152007,5200.512646,N,422.103882,E,1,14,0.8,60.4,M,,M,,*4D
$GPGGA,152008,5200.512646,N,422.103882,E,1,19,0.7,60.4,M,,M,,*40
$GPGGA,152009,5200.512646,N,422.103882,E,1,15,0.8,60.4,M,,M,,*42
$GPGGA,152010,5200.512646,N,422.103882,E,1,15,0.8,60.4,M,,M,,*4A
$GPGGA,152011,5200.512646,N,422.103882,E,1,16,0.9,60.4,M,,M,,*49
$GPGGA,152012,5200.512646,N,422.103882,E,1,17,0.8,60.4,M,,M,,*4A
$GPGGA,152013,5200.512646,N,422.103882,E,1,15,0.9,60.4,M,,M,,*48
$GPGGA,152014,5200.512646,N,422.103882,E,1,17,0.8,60.4,M,,M,,*4C
$GPGGA,152015,5200.512646,N,422.103882,E,1,18,0.8,60.4,M,,M,,*42
$GPGGA,152016,5200.512646,N,422.103882,E,1,15,1,60.4,M,,M,,*45
$GPGGA,152017,5200.512646,N,422.103882,E,1,17,0.9,60.4,M,,M,,*4E
$GPGGA,152018,5200.512646,N,422.103882,E,1,15,0.9,60.4,M,,M,,*43
$GPGGA,152019,5200.512646,N,422.103882,E,1,19,0.8,60.4,M,,M,,*4F
$GPGGA,152020,5200.512646,N,422.103882,E,1,16,0.9,60.4,M,,M,,*4B
$GPGGA,152021,5200.512646,N,422.103882,E,1,15,0.9,60.4,M,,M,,*49
$GPGGA,152022,5200.512646,N,422.103882,E,1,18,0.8,60.4,M,,M,,*46
$GPGGA,152023,5200.512646,N,422.103882,E,1,19,0.8,60.4,M,,M,,*46
$GPGGA,152024,5200.512646,N,422.103882,E,1,19,0.8,60.4,M,,M,,*41
$GPGGA,152025,5200.512646,N,422.103882,E,1,20,0.8,60.4,M,,M,,*4A
$GPGGA,152026,5200.512646,N,422.103882,E,1,21,0.7,60.4,M,,M,,*47
$GPGGA,152027,5200.512646,N,422.103882,E,1,20,0.7,60.4,M,,M,,*47
$GPGGA,152028,5200.512646,N,422.103882,E,1,19,0.8,60.4,M,,M,,*4D
$GPGGA,152029,5200.512646,N,422.103882,E,1,18,0.8,60.4,M,,M,,*4D
$GPGGA,152030,5200.512646,N,422.103882,E,1,16,0.9,60.4,M,,M,,*4A
$GPGGA,152031,5200.512646,N,422.103882,E,1,21,0.7,60.4,M,,M,,*41
$GPGGA,152032,5200.512646,N,422.103882,E,1,22,0.7,60.4,M,,M,,*41
$GPGGA,152033,5200.512646,N,422.103882,E,1,17,0.9,60.4,M,,M,,*48
$GPGGA,152034,5200.512646,N,422.103882,E,1,18,0.8,60.4,M,,M,,*41
$GPGGA,152035,5200.512646,N,422.103882,E,1,20,0.8,60.4,M,,M,,*4B
$GPGGA,152036,5200.512646,N,422.103882,E,1,18,0.8,60.4,M,,M,,*43
$GPGGA,152037,5200.512646,N,422.103882,E,1,19,0.8,60.4,M,,M,,*43
$GPGGA,152038,5200.512646,N,422.103882,E,1,16,0.8,60.4,M,,M,,*43
$GPGGA,152039,5200.512646,N,422.103882,E,1,18,0.8,60.4,M,,M,,*4C
$GPGGA,152040,5200.512646,N,422.103882,E,1,17,0.8,60.4,M,,M,,*4D
$GPGGA,152041,5200.512646,N,422.103882,E,1,17,0.8,60.4,M,,M,,*4C
$GPGGA,152042,5200.512646,N,422.103882,E,1,18,0.8,60.4,M,,M,,*40
$GPGGA,152043,5200.512646,N,422.103882,E,1,16,0.9,60.4,M,,M,,*4E
$GPGGA,152044,5200.512646,N,422.103882,E,1,15,0.9,60.4,M,,M,,*4A
$GPGGA,152045,5200.512646,N,422.103882,E,1,19,0.8,60.4,M,,M,,*46
$GPGGA,152046,5200.512646,N,422.103882,E,1,14,0.9,60.4,M,,M,,*49
$GPGGA,152047,5200.512646,N,422.103882,E,1,19,0.8,60.4,M,,M,,*44
$GPGGA,152048,5200.512646,N,422.103882,E,1,16,0.8,60.4,M,,M,,*44
$GPGGA,152049,5200.512646,N,422.103882,E,1,17,0.8,60.4,M,,M,,*44
$GPGGA,152050,5200.512646,N,422.103882,E,1,15,0.9,60.4,M,,M,,*4F
$GPGGA,152051,5200.512646,N,422.103882,E,1,15,0.9,60.4,M,,M,,*4E
$GPGGA,152052,5200.512646,N,422.103882,E,1,13,1,60.4,M,,M,,*43
$GPGGA,152053,5200.512646,N,422.103882,E,1,17,0.8,60.4,M,,M,,*4F
$GPGGA,152054,5200.512646,N,422.103882,E,1,15,0.8,60.4,M,,M,,*4A
$GPGGA,152055,5200.512646,N,422.103882,E,1,16,0.8,60.4,M,,M,,*48
$GPGGA,152056,5200.512646,N,422.103882,E,1,14,0.9,60.4,M,,M,,*48
$GPGGA,152057,5200.512646,N,422.103882,E,1,14,1,60.4,M,,M,,*41
$GPGGA,152058,5200.512646,N,422.103882,E,1,14,0.9,60.4,M,,M,,*46
$GPGGA,152059,5200.512646,N,422.103882,E,1,16,1,60.4,M,,M,,*4D
$GPGGA,152100,5200.512646,N,422.103882,E,1,16,1.1,60.4,M,,M,,*41
$GPGGA,152101,5200.512646,N,422.103882,E,1,17,1,60.4,M,,M,,*40
$GPGGA,152102,5200.512646,N,422.103882,E,1,19,0.8,60.4,M,,M,,*44
$GPGGA,152103,5200.512646,N,422.103882,E,1,18,0.9,60.4,M,,M,,*45
$GPGGA,152104,5200.512646,N,422.103882,E,1,15,1.2,60.4,M,,M,,*45
$GPGGA,152105,5200.512646,N,422.103882,E,1,17,0.8,60.4,M,,M,,*4D
$GPGGA,152106,5200.512646,N,422.103882,E,1,17,0.8,60.4,M,,M,,*4E
$GPGGA,152107,5200.512646,N,422.103882,E,1,17,0.8,60.4,M,,M,,*4F
$GPGGA,152108,5200.512646,N,422.103882,E,1,17,0.8,60.4,M,,M,,*40
$GPGGA,152109,5200.512646,N,422.103882,E,1,20,0.7,60.4,M,,M,,*4A
$GPGGA,152110,5200.512646,N,422.103882,E,1,18,0.8,60.4,M,,M,,*46
$GPGGA,152111,5200.512646,N,422.103882,E,1,14,0.9,60.4,M,,M,,*4A
$GPGGA,152112,5200.512646,N,422.103882,E,1,18,0.7,60.4,M,,M,,*4B
$GPGGA,152113,5200.512646,N,422.103882,E,1,19,0.7,60.4,M,,M,,*4B
$GPGGA,152114,5200.512646,N,422.103882,E,1,18,0.7,60.4,M,,M,,*4D
$GPGGA,152115,5200.512646,N,422.103882,E,1,19,0.7,60.4,M,,M,,*4D
$GPGGA,152116,5200.512646,N,422.103882,E,1,19,0.7,60.4,M,,M,,*4E
$GPGGA,152117,5200.512646,N,422.103882,E,1,20,0.7,60.4,M,,M,,*45
$GPGGA,152118,5200.512646,N,422.103882,E,1,21,0.7,60.4,M,,M,,*4B
$GPGGA,152119,5200.512646,N,422.103882,E,1,22,0.6,60.4,M,,M,,*48
$GPGGA,152120,5200.512646,N,422.103882,E,1,20,0.7,60.4,M,,M,,*41
$GPGGA,152121,5200.512646,N,422.103882,E,1,18,0.8,60.4,M,,M,,*44
$GPGGA,152122,5200.512646,N,422.103882,E,1,20,0.7,60.4,M,,M,,*43
$GPGGA,152123,5200.512646,N,422.103882,E,1,17,0.8,60.4,M,,M,,*49
$GPGGA,152124,5200.512646,N,422.103882,E,1,18,0.7,60.4,M,,M,,*4E
$GPGGA,152125,5200.512646,N,422.103882,E,1,18,0.7,60.4,M,,M,,*4F
$GPGGA,152126,5200.512646,N,422.103882,E,1,16,0.8,60.4,M,,M,,*4D
$GPGGA,152127,5200.512646,N,422.103882,E,1,17,0.9,60.4,M,,M,,*4C
$GPGGA,152128,5200.512646,N,422.103882,E,1,18,0.9,60.4,M,,M,,*4C
$GPGGA,152129,5200.512646,N,422.103882,E,1,17,0.9,60.4,M,,M,,*42
$GPGGA,152130,5200.512646,N,422.103882,E,1,16,1,60.4,M,,M,,*43
$GPGGA,152131,5200.512646,N,422.103882,E,1,17,0.8,60.4,M,,M,,*4A
$GPGGA,152132,5200.512646,N,422.103882,E,1,18,0.8,60.4,M,,M,,*46
$GPGGA,152133,5200.512646,N,422.103882,E,1,18,0.8,60.4,M,,M,,*47
$GPGGA,152134,5200.512646,N,422.103882,E,1,17,1,60.4,M,,M,,*46
$GPGGA,152135,5200.512646,N,422.103882,E,1,16,0.8,60.4,M,,M,,*4F
$GPGGA,152136,5200.512646,N,422.103882,E,1,19,0.8,60.4,M,,M,,*43
$GPGGA,152137,5200.512811,N,422.103553,E,1,19,0.7,60.8,M,,M,,*4C
$GPGGA,152138,5200.512811,N,422.103553,E,1,20,0.7,60.8,M,,M,,*49
$GPGGA,152139,5200.512811,N,422.103553,E,1,16,0.8,60.8,M,,M,,*42
$GPGGA,152140,5200.512811,N,422.103553,E,1,19,0.7,60.8,M,,M,,*4C
$GPGGA,152141,5200.512811,N,422.103553,E,1,18,0.7,60.8,M,,M,,*4C
$GPGGA,152142,5200.512811,N,422.103553,E,1,20,0.7,60.8,M,,M,,*44
$GPGGA,152143,5200.512811,N,422.103553,E,1,21,0.7,60.8,M,,M,,*44
$GPGGA,152144,5200.512811,N,422.103553,E,1,17,0.8,60.8,M,,M,,*49
$GPGGA,152145,5200.512811,N,422.103553,E,1,21,0.7,60.8,M,,M,,*42
$GPGGA,152146,5200.512811,N,422.103553,E,1,20,0.7,60.8,M,,M,,*40
$GPGGA,152147,5200.512811,N,422.103553,E,1,19,0.7,60.8,M,,M,,*4B
$GPGGA,152148,5200.512985,N,422.103414,E,1,16,0.8,60.6,M,,M,,*44
$GPGGA,152149,5200.512985,N,422.103414,E,1,17,0.8,60.6,M,,M,,*44
$GPGGA,152150,5200.512985,N,422.103414,E,1,19,0.7,60.6,M,,M,,*4D
$GPGGA,152151,5200.512985,N,422.103414,E,1,17,0.8,60.6,M,,M,,*4D
$GPGGA,152152,5200.512985,N,422.103414,E,1,19,0.7,60.6,M,,M,,*4F
$GPGGA,152153,5200.512985,N,422.103414,E,1,20,0.7,60.6,M,,M,,*44
$GPGGA,152154,5200.512985,N,422.103414,E,1,22,0.7,60.6,M,,M,,*41
$GPGGA,152155,5200.512985,N,422.103414,E,1,21,0.7,60.6,M,,M,,*43
$GPGGA,152156,5200.512985,N,422.103414,E,1,22,0.7,60.6,M,,M,,*43
$GPGGA,152157,5200.512985,N,422.103414,E,1,19,0.7,60.6,M,,M,,*4A
$GPGGA,152158,5200.512985,N,422.103414,E,1,17,0.8,60.6,M,,M,,*44
$GPGGA,152159,5200.512985,N,422.103414,E,1,18,0.8,60.6,M,,M,,*4A
$GPGGA,152200,5200.512985,N,422.103414,E,1,20,0.7,60.6,M,,M,,*41
$GPGGA,152201,5200.512985,N,422.103414,E,1,19,0.7,60.6,M,,M,,*4A
$GPGGA,152202,5200.512873,N,422.103545,E,1,14,0.8,60.6,M,,M,,*46
$GPGGA,152203,5200.512873,N,422.103545,E,1,20,0.7,60.6,M,,M,,*4F
$GPGGA,152204,5200.512873,N,422.103545,E,1,16,0.8,60.6,M,,M,,*42
$GPGGA,152205,5200.512873,N,422.103545,E,1,17,0.8,60.6,M,,M,,*42
$GPGGA,152206,5200.512873,N,422.103545,E,1,18,0.8,60.6,M,,M,,*4E
$GPGGA,152207,5200.512873,N,422.103545,E,1,16,0.9,60.6,M,,M,,*40
$GPGGA,152208,5200.512873,N,422.103545,E,1,18,0.8,60.6,M,,M,,*40
$GPGGA,152209,5200.512873,N,422.103545,E,1,16,0.9,60.6,M,,M,,*4E
$GPGGA,152210,5200.512873,N,422.103545,E,1,19,0.8,60.6,M,,M,,*48
$GPGGA,152211,5200.512873,N,422.103545,E,1,18,0.8,60.6,M,,M,,*48
$GPGGA,152212,5200.512873,N,422.103545,E,1,17,0.9,60.6,M,,M,,*45
$GPGGA,152213,5200.512873,N,422.103545,E,1,18,0.8,60.6,M,,M,,*4A
$GPGGA,152214,5200.512873,N,422.103545,E,1,14,1,60.6,M,,M,,*48
$GPGGA,152215,5200.512873,N,422.103545,E,1,17,0.9,60.6,M,,M,,*42
$GPGGA,152216,5200.512873,N,422.103545,E,1,19,0.8,60.6,M,,M,,*4E
$GPGGA,152217,5200.512873,N,422.103545,E,1,20,0.7,60.6,M,,M,,*4A
$GPGGA,152218,5200.512873,N,422.103545,E,1,19,0.7,60.6,M,,M,,*4F
$GPGGA,152219,5200.512873,N,422.103545,E,1,19,0.7,60.6,M,,M,,*4E
$GPGGA,152220,5200.512873,N,422.103545,E,1,22,0.7,60.6,M,,M,,*4C
$GPGGA,152221,5200.512873,N,422.103545,E,1,19,0.7,60.6,M,,M,,*45
$GPGGA,152222,5200.512873,N,422.103545,E,1,19,0.7,60.6,M,,M,,*46
$GPGGA,152223,5200.512873,N,422.103545,E,1,17,0.7,60.6,M,,M,,*49
$GPGGA,152224,5200.512873,N,422.103545,E,1,20,0.7,60.6,M,,M,,*4A
$GPGGA,152225,5200.512873,N,422.103545,E,1,18,0.7,60.6,M,,M,,*40
$GPGGA,152226,5200.512873,N,422.103545,E,1,21,0.7,60.6,M,,M,,*49
$GPGGA,152227,5200.512873,N,422.103545,E,1,17,0.7,60.6,M,,M,,*4D
$GPGGA,152228,5200.512873,N,422.103545,E,1,19,0.7,60.6,M,,M,,*4C
$GPGGA,152229,5200.512873,N,422.103545,E,1,21,0.7,60.6,M,,M,,*46
$GPGGA,152230,5200.512873,N,422.103545,E,1,19,0.7,60.6,M,,M,,*45
$GPGGA,152231,5200.512873,N,422.103545,E,1,18,0.8,60.6,M,,M,,*4A
$GPGGA,152232,5200.512873,N,422.103545,E,1,20,0.7,60.6,M,,M,,*4D
$GPGGA,152233,5200.512873,N,422.103545,E,1,19,0.7,60.6,M,,M,,*46
$GPGGA,152234,5200.512873,N,422.103545,E,1,12,0.9,60.6,M,,M,,*44
$GPGGA,152235,5200.512873,N,422.103545,E,1,19,0.8,60.6,M,,M,,*4F
$GPGGA,152236,5200.512873,N,422.103545,E,1,21,0.7,60.6,M,,M,,*48
$GPGGA,152237,5200.512873,N,422.103545,E,1,22,0.7,60.6,M,,M,,*4A
$GPGGA,152238,5200.512873,N,422.103545,E,1,21,0.8,60.6,M,,M,,*49
$GPGGA,152239,5200.512873,N,422.103545,E,1,14,1,60.6,M,,M,,*47
$GPGGA,152240,5200.512873,N,422.103545,E,1,14,1,60.6,M,,M,,*49
$GPGGA,152241,5200.512873,N,422.103545,E,1,17,1,60.6,M,,M,,*4B
$GPGGA,152242,5200.512873,N,422.103545,E,1,19,0.8,60.6,M,,M,,*4F
$GPGGA,152243,5200.512873,N,422.103545,E,1,14,1,60.6,M,,M,,*4A
$GPGGA,152244,5200.512873,N,422.103545,E,1,19,0.8,60.6,M,,M,,*49
$GPGGA,152245,5200.512873,N,422.103545,E,1,16,0.9,60.6,M,,M,,*46
$GPGGA,152246,5200.512873,N,422.103545,E,1,17,0.8,60.6,M,,M,,*45
$GPGGA,152247,5200.512873,N,422.103545,E,1,17,1,60.6,M,,M,,*4D
$GPGGA,152248,5200.512873,N,422.103545,E,1,15,0.9,60.6,M,,M,,*48
$GPGGA,152249,5200.512873,N,422.103545,E,1,19,0.7,60.6,M,,M,,*4B
$GPGGA,152250,5200.512873,N,422.103545,E,1,21,0.7,60.6,M,,M,,*48
$GPGGA,152251,5200.512873,N,422.103545,E,1,21,0.7,60.6,M,,M,,*49
$GPGGA,152252,5200.512873,N,422.103545,E,1,16,0.8,60.6,M,,M,,*41
$GPGGA,152253,5200.512873,N,422.103545,E,1,20,0.7,60.6,M,,M,,*4A
$GPGGA,152254,5200.512873,N,422.103545,E,1,20,0.7,60.6,M,,M,,*4D
$GPGGA,152255,5200.512873,N,422.103545,E,1,22,0.7,60.6,M,,M,,*4E
$GPGGA,152256,5200.512873,N,422.103545,E,1,21,0.7,60.6,M,,M,,*4E
$GPGGA,152257,5200.512873,N,422.103545,E,1,20,0.8,60.6,M,,M,,*41
$GPGGA,152258,5200.512873,N,422.103545,E,1,20,0.7,60.6,M,,M,,*41
$GPGGA,152259,5200.512873,N,422.103545,E,1,18,0.8,60.6,M,,M,,*44
$GPGGA,152300,5200.512873,N,422.103545,E,1,20,0.7,60.6,M,,M,,*4D
$GPGGA,152301,5200.512873,N,422.103545,E,1,20,0.7,60.6,M,,M,,*4C
$GPGGA,152302,5200.512873,N,422.103545,E,1,18,0.7,60.6,M,,M,,*44
$GPGGA,152303,5200.512873,N,422.103545,E,1,21,0.7,60.6,M,,M,,*4F
$GPGGA,152304,5200.512873,N,422.103545,E,1,16,0.9,60.6,M,,M,,*42
$GPGGA,152305,5200.512873,N,422.103545,E,1,20,0.7,60.6,M,,M,,*48
$GPGGA,152306,5200.512873,N,422.103545,E,1,13,1.2,60.6,M,,M,,*4F
$GPGGA,152307,5200.512873,N,422.103545,E,1,18,0.7,60.6,M,,M,,*41
$GPGGA,152308,5200.512873,N,422.103545,E,1,19,0.7,60.6,M,,M,,*4F
$GPGGA,152309,5200.512873,N,422.103545,E,1,19,0.7,60.6,M,,M,,*4E
$GPGGA,152310,5200.512873,N,422.103545,E,1,18,0.8,60.6,M,,M,,*48
$GPGGA,152311,5200.512873,N,422.103545,E,1,14,1,60.6,M,,M,,*4C
$GPGGA,152312,5200.512873,N,422.103545,E,1,16,0.9,60.6,M,,M,,*45
$GPGGA,152313,5200.512873,N,422.103545,E,1,19,0.8,60.6,M,,M,,*4A
$GPGGA,152314,5200.512873,N,422.103545,E,1,21,0.7,60.6,M,,M,,*49
$GPGGA,152315,5200.512873,N,422.103545,E,1,22,0.7,60.6,M,,M,,*4B
$GPGGA,152316,5200.512873,N,422.103545,E,1,20,0.7,60.6,M,,M,,*4A
$GPGGA,152317,5200.512873,N,422.103545,E,1,19,0.8,60.6,M,,M,,*4E
$GPGGA,152318,5200.512873,N,422.103545,E,1,19,0.8,60.6,M,,M,,*41
$GPGGA,152319,5200.512873,N,422.103545,E,1,20,0.8,60.6,M,,M,,*4A
$GPGGA,152320,5200.512873,N,422.103545,E,1,19,1,60.6,M,,M,,*43
$GPGGA,152321,5200.512873,N,422.103545,E,1,20,0.8,60.6,M,,M,,*41
$GPGGA,152322,5200.512873,N,422.103545,E,1,20,0.7,60.6,M,,M,,*4D
$GPGGA,152323,5200.512873,N,422.103545,E,1,21,0.7,60.6,M,,M,,*4D
$GPGGA,152324,5200.512873,N,422.103545,E,1,19,0.7,60.6,M,,M,,*41
$GPGGA,152325,5200.512873,N,422.103545,E,1,17,0.7,60.6,M,,M,,*4E
$GPGGA,152326,5200.512873,N,422.103545,E,1,14,0.9,60.6,M,,M,,*40
$GPGGA,152327,5200.512873,N,422.103545,E,1,20,0.7,60.6,M,,M,,*48
$GPGGA,152328,5200.512873,N,422.103545,E,1,19,0.8,60.6,M,,M,,*42
$GPGGA,152329,5200.512873,N,422.103545,E,1,22,0.7,60.6,M,,M,,*44
$GPGGA,152330,5200.512873,N,422.103545,E,1,21,0.7,60.6,M,,M,,*4F
$GPGGA,152331,5200.512873,N,422.103545,E,1,20,0.8,60.6,M,,M,,*40
$GPGGA,152332,5200.512873,N,422.103545,E,1,17,0.8,60.6,M,,M,,*47
$GPGGA,152333,5200.512873,N,422.103545,E,1,21,0.7,60.6,M,,M,,*4C
$GPGGA,152334,5200.512873,N,422.103545,E,1,22,0.7,60.6,M,,M,,*48
$GPGGA,152335,5200.512873,N,422.103545,E,1,20,0.7,60.6,M,,M,,*4B
$GPGGA,152336,5200.512873,N,422.103545,E,1,22,0.7,60.6,M,,M,,*4A
$GPGGA,152337,5200.512873,N,422.103545,E,1,18,0.8,60.6,M,,M,,*4D
$GPGGA,152338,5200.512873,N,422.103545,E,1,18,0.8,60.6,M,,M,,*42
$GPGGA,152339,5200.512873,N,422.103545,E,1,19,0.8,60.6,M,,M,,*42
$GPGGA,152340,5200.512873,N,422.103545,E,1,17,0.9,60.6,M,,M,,*43
$GPGGA,152341,5200.512873,N,422.103545,E,1,19,0.8,60.6,M,,M,,*4D
$GPGGA,152342,5200.512873,N,422.103545,E,1,19,0.8,60.6,M,,M,,*4E
$GPGGA,152343,5200.512873,N,422.103545,E,1,20,0.8,60.6,M,,M,,*45
$GPGGA,152344,5200.512873,N,422.103545,E,1,21,0.7,60.6,M,,M,,*4C
$GPGGA,152345,5200.512873,N,422.103545,E,1,20,0.7,60.6,M,,M,,*4C
$GPGGA,152346,5200.512873,N,422.103545,E,1,20,0.7,60.6,M,,M,,*4F
$GPGGA,152347,5200.512873,N,422.103545,E,1,16,1,60.6,M,,M,,*4D
$GPGGA,152348,5200.512873,N,422.103545,E,1,20,0.7,60.6,M,,M,,*41
$GPGGA,152349,5200.512873,N,422.103545,E,1,21,0.7,60.6,M,,M,,*41
$GPGGA,152350,5200.512873,N,422.103545,E,1,18,0.7,60.6,M,,M,,*43
$GPGGA,152351,5200.512873,N,422.103545,E,1,19,0.8,60.6,M,,M,,*4C
$GPGGA,152352,5200.512873,N,422.103545,E,1,19,0.7,60.6,M,,M,,*40
$GPGGA,152353,5200.512873,N,422.103545,E,1,16,0.8,60.6,M,,M,,*41
$GPGGA,152354,5200.512873,N,422.103545,E,1,17,0.8,60.6,M,,M,,*47
$GPGGA,152355,5200.512873,N,422.103545,E,1,17,0.8,60.6,M,,M,,*46
$GPGGA,152356,5200.512873,N,422.103545,E,1,18,0.7,60.6,M,,M,,*45