$GPGGA,123357,5200.962497,N,422.897528,E,1,12,1,45.4,M,,M,,*49
$GPGGA,123358,5200.962497,N,422.897528,E,1,14,0.8,45.4,M,,M,,*49
$GPGGA,123359,5200.962497,N,422.897528,E,1,19,0.7,45.4,M,,M,,*4A
$GPGGA,123400,5200.962497,N,422.897528,E,1,17,0.7,45.4,M,,M,,*4F
$GPGGA,123401,5200.962497,N,422.897528,E,1,20,0.7,45.4,M,,M,,*4A
$GPGGA,123402,5200.962497,N,422.897528,E,1,22,0.6,45.4,M,,M,,*4A
$GPGGA,123403,5200.962497,N,422.897528,E,1,21,0.7,45.4,M,,M,,*49
$GPGGA,123404,5200.962497,N,422.897528,E,1,23,0.6,45.4,M,,M,,*4D
$GPGGA,123405,5200.962497,N,422.897528,E,1,17,0.8,45.4,M,,M,,*45
$GPGGA,123406,5200.962497,N,422.897528,E,1,20,0.7,45.4,M,,M,,*4D
$GPGGA,123407,5200.962497,N,422.897528,E,1,21,0.6,45.4,M,,M,,*4C
$GPGGA,123408,5200.962497,N,422.897528,E,1,21,0.6,45.4,M,,M,,*43
$GPGGA,123409,5200.962497,N,422.897528,E,1,20,0.7,45.4,M,,M,,*42
$GPGGA,123410,5200.962497,N,422.897528,E,1,22,0.6,45.4,M,,M,,*49
$GPGGA,123411,5200.962497,N,422.897528,E,1,17,0.8,45.4,M,,M,,*40
$GPGGA,123412,5200.962497,N,422.897528,E,1,20,0.7,45.4,M,,M,,*48
$GPGGA,123413,5200.962477,N,422.89744,E,1,19,0.7,45.4,M,,M,,*42
$GPGGA,123414,5200.962477,N,422.89744,E,1,20,0.6,45.4,M,,M,,*4E
$GPGGA,123415,5200.962541,N,422.897625,E,1,21,0.6,45.3,M,,M,,*4C
$GPGGA,123416,5200.962541,N,422.897625,E,1,25,0.6,45.3,M,,M,,*4B
$GPGGA,123417,5200.962541,N,422.897625,E,1,22,0.6,45.3,M,,M,,*4D
$GPGGA,123418,5200.962541,N,422.897625,E,1,24,0.6,45.3,M,,M,,*44
$GPGGA,123419,5200.962541,N,422.897625,E,1,23,0.7,45.3,M,,M,,*43
$GPGGA,123420,5200.962541,N,422.897625,E,1,22,0.7,45.3,M,,M,,*48
$GPGGA,123421,5200.962541,N,422.897625,E,1,22,0.7,45.3,M,,M,,*49
$GPGGA,123422,5200.962541,N,422.897625,E,1,18,0.8,45.3,M,,M,,*4C
$GPGGA,123423,5200.962541,N,422.897625,E,1,19,0.7,45.3,M,,M,,*43
$GPGGA,123424,5200.962541,N,422.897625,E,1,19,0.7,45.3,M,,M,,*44
$GPGGA,123425,5200.962541,N,422.897625,E,1,22,0.7,45.3,M,,M,,*4D
$GPGGA,123426,5200.962541,N,422.897625,E,1,21,0.7,45.3,M,,M,,*4D
$GPGGA,123427,5200.962541,N,422.897625,E,1,19,0.8,45.3,M,,M,,*48
$GPGGA,123428,5200.962541,N,422.897625,E,1,20,0.7,45.3,M,,M,,*42
$GPGGA,123429,5200.962541,N,422.897625,E,1,22,0.6,45.3,M,,M,,*40
$GPGGA,123430,5200.962541,N,422.897625,E,1,19,0.7,45.3,M,,M,,*41
$GPGGA,123431,5200.962541,N,422.897625,E,1,19,0.8,45.3,M,,M,,*4F
$GPGGA,123432,5200.962541,N,422.897625,E,1,20,0.7,45.3,M,,M,,*49
$GPGGA,123433,5200.962365,N,422.897333,E,1,22,0.6,45.2,M,,M,,*48
$GPGGA,123434,5200.962365,N,422.897333,E,1,21,0.7,45.2,M,,M,,*4D
$GPGGA,123435,5200.962365,N,422.897333,E,1,18,0.6,45.2,M,,M,,*47
$GPGGA,123436,5200.962365,N,422.897333,E,1,17,0.7,45.2,M,,M,,*4A
$GPGGA,123437,5200.962365,N,422.897333,E,1,19,0.7,45.2,M,,M,,*45
$GPGGA,123438,5200.962365,N,422.897333,E,1,20,0.6,45.2,M,,M,,*41
$GPGGA,123439,5200.962365,N,422.897333,E,1,19,0.7,45.2,M,,M,,*4B
$GPGGA,123440,5200.962365,N,422.897333,E,1,19,0.7,45.2,M,,M,,*45
$GPGGA,123441,5200.962365,N,422.897333,E,1,18,0.7,45.2,M,,M,,*45
$GPGGA,123442,5200.962365,N,422.897333,E,1,13,0.8,45.2,M,,M,,*42
$GPGGA,123443,5200.962365,N,422.897333,E,1,19,0.7,45.2,M,,M,,*46
$GPGGA,123444,5200.962365,N,422.897333,E,1,19,0.7,45.2,M,,M,,*41
$GPGGA,123445,5200.962365,N,422.897333,E,1,19,0.7,45.2,M,,M,,*40
$GPGGA,123446,5200.962365,N,422.897333,E,1,22,0.6,45.2,M,,M,,*4A
$GPGGA,123447,5200.962365,N,422.897333,E,1,17,0.7,45.2,M,,M,,*4C
$GPGGA,123448,5200.962365,N,422.897333,E,1,18,0.7,45.2,M,,M,,*4C
$GPGGA,123449,5200.962365,N,422.897333,E,1,21,0.6,45.2,M,,M,,*46
$GPGGA,123450,5200.962365,N,422.897333,E,1,20,0.7,45.2,M,,M,,*4E
$GPGGA,123451,5200.962365,N,422.897333,E,1,18,0.7,45.2,M,,M,,*44
$GPGGA,123452,5200.962365,N,422.897333,E,1,19,0.7,45.2,M,,M,,*46
$GPGGA,123453,5200.962181,N,422.897179,E,1,19,0.7,45.2,M,,M,,*43
$GPGGA,123454,5200.962181,N,422.897179,E,1,13,0.9,45.2,M,,M,,*40
$GPGGA,123455,5200.962156,N,422.897399,E,1,14,0.8,45.2,M,,M,,*41
$GPGGA,123456,5200.962156,N,422.897399,E,1,13,0.9,45.2,M,,M,,*44
$GPGGA,123457,5200.962156,N,422.897399,E,1,16,0.8,45.2,M,,M,,*41
$GPGGA,123458,5200.962156,N,422.897399,E,1,19,0.7,45.2,M,,M,,*4E
$GPGGA,123459,5200.962156,N,422.897399,E,1,16,0.7,45.2,M,,M,,*40
$GPGGA,123500,5200.962156,N,422.897399,E,1,21,0.6,45.2,M,,M,,*48
$GPGGA,123501,5200.962156,N,422.897399,E,1,19,0.6,45.2,M,,M,,*42
$GPGGA,123502,5200.962156,N,422.897399,E,1,20,0.6,45.2,M,,M,,*4B
$GPGGA,123503,5200.962156,N,422.897399,E,1,21,0.6,45.2,M,,M,,*4B
$GPGGA,123504,5200.962156,N,422.897399,E,1,19,0.7,45.2,M,,M,,*46
$GPGGA,123505,5200.962156,N,422.897399,E,1,24,0.6,45.2,M,,M,,*48
$GPGGA,123506,5200.962156,N,422.897399,E,1,20,0.7,45.2,M,,M,,*4E
$GPGGA,123507,5200.962156,N,422.897399,E,1,18,0.8,45.2,M,,M,,*4B
$GPGGA,123508,5200.962156,N,422.897399,E,1,17,0.8,45.2,M,,M,,*4B
$GPGGA,123509,5200.962156,N,422.897399,E,1,20,0.7,45.2,M,,M,,*41
$GPGGA,123510,5200.962156,N,422.897399,E,1,21,0.7,45.2,M,,M,,*48
$GPGGA,123511,5200.962156,N,422.897399,E,1,22,0.7,45.2,M,,M,,*4A
$GPGGA,123512,5200.962156,N,422.897399,E,1,17,0.7,45.2,M,,M,,*4F
$GPGGA,123513,5200.962206,N,422.897148,E,1,20,0.7,45.2,M,,M,,*42
$GPGGA,123514,5200.962206,N,422.897148,E,1,17,0.8,45.2,M,,M,,*4E
$GPGGA,123515,5200.962206,N,422.897148,E,1,17,0.8,45.2,M,,M,,*4F
$GPGGA,123516,5200.962206,N,422.897148,E,1,19,0.7,45.2,M,,M,,*4D
$GPGGA,123517,5200.962206,N,422.897148,E,1,19,0.7,45.2,M,,M,,*4C
$GPGGA,123518,5200.962206,N,422.897148,E,1,18,0.8,45.2,M,,M,,*4D
$GPGGA,123519,5200.962206,N,422.897148,E,1,21,0.7,45.2,M,,M,,*49
$GPGGA,123520,5200.962206,N,422.897148,E,1,21,0.7,45.2,M,,M,,*43
$GPGGA,123521,5200.962206,N,422.897148,E,1,22,0.7,45.2,M,,M,,*41
$GPGGA,123522,5200.962206,N,422.897148,E,1,17,0.8,45.2,M,,M,,*4B
$GPGGA,123523,5200.962206,N,422.897148,E,1,18,0.8,45.2,M,,M,,*45
$GPGGA,123524,5200.962206,N,422.897148,E,1,21,0.7,45.2,M,,M,,*47
$GPGGA,123525,5200.962206,N,422.897148,E,1,23,0.6,45.2,M,,M,,*45
$GPGGA,123526,5200.962206,N,422.897148,E,1,21,0.7,45.2,M,,M,,*45
$GPGGA,123527,5200.962206,N,422.897148,E,1,14,0.9,45.2,M,,M,,*4C
$GPGGA,123528,5200.962206,N,422.897148,E,1,15,0.8,45.2,M,,M,,*43
$GPGGA,123529,5200.962206,N,422.897148,E,1,14,0.9,45.2,M,,M,,*42
$GPGGA,123530,5200.962206,N,422.897148,E,1,19,0.8,45.2,M,,M,,*46
$GPGGA,123531,5200.962206,N,422.897148,E,1,20,0.7,45.2,M,,M,,*42
$GPGGA,123532,5200.962206,N,422.897148,E,1,18,0.7,45.2,M,,M,,*4A
$GPGGA,123533,5200.962096,N,422.896868,E,1,17,0.7,45.2,M,,M,,*45
$GPGGA,123534,5200.962096,N,422.896868,E,1,19,0.7,45.2,M,,M,,*4C
$GPGGA,123535,5200.962096,N,422.896868,E,1,19,0.7,45.2,M,,M,,*4D
$GPGGA,123536,5200.962096,N,422.896868,E,1,20,0.7,45.2,M,,M,,*44
$GPGGA,123537,5200.962096,N,422.896868,E,1,17,0.8,45.2,M,,M,,*4E
$GPGGA,123538,5200.962096,N,422.896868,E,1,20,0.7,45.2,M,,M,,*4A
$GPGGA,123539,5200.962096,N,422.896868,E,1,22,0.7,45.2,M,,M,,*49
$GPGGA,123540,5200.962096,N,422.896868,E,1,23,0.6,45.2,M,,M,,*47
$GPGGA,123541,5200.962096,N,422.896868,E,1,19,0.8,45.2,M,,M,,*41
$GPGGA,123542,5200.962096,N,422.896868,E,1,18,0.8,45.2,M,,M,,*43
$GPGGA,123543,5200.962096,N,422.896868,E,1,19,0.8,45.2,M,,M,,*43
$GPGGA,123544,5200.962096,N,422.896868,E,1,20,0.7,45.2,M,,M,,*41
$GPGGA,123545,5200.962096,N,422.896868,E,1,20,0.7,45.2,M,,M,,*40
$GPGGA,123546,5200.962096,N,422.896868,E,1,19,0.7,45.2,M,,M,,*49
$GPGGA,123547,5200.962096,N,422.896868,E,1,16,0.9,45.2,M,,M,,*49
$GPGGA,123548,5200.962096,N,422.896868,E,1,19,0.8,45.2,M,,M,,*48
$GPGGA,123549,5200.962096,N,422.896868,E,1,22,0.7,45.2,M,,M,,*4E
$GPGGA,123550,5200.962096,N,422.896868,E,1,22,0.7,45.2,M,,M,,*46
$GPGGA,123551,5200.962096,N,422.896868,E,1,19,0.7,45.2,M,,M,,*4F
$GPGGA,123552,5200.962096,N,422.896868,E,1,22,0.6,45.2,M,,M,,*45
$GPGGA,123553,5200.962024,N,422.896839,E,1,24,0.6,45.2,M,,M,,*4F
$GPGGA,123554,5200.962024,N,422.896839,E,1,18,0.7,45.2,M,,M,,*46
$GPGGA,123555,5200.96221,N,422.896991,E,1,20,0.7,45.2,M,,M,,*4A
$GPGGA,123556,5200.96221,N,422.896991,E,1,19,0.7,45.2,M,,M,,*43
$GPGGA,123557,5200.96221,N,422.896991,E,1,20,0.7,45.2,M,,M,,*48
$GPGGA,123558,5200.96221,N,422.896991,E,1,21,0.6,45.2,M,,M,,*47
$GPGGA,123559,5200.96221,N,422.896991,E,1,20,0.7,45.2,M,,M,,*46
$GPGGA,123600,5200.96221,N,422.896991,E,1,22,0.7,45.2,M,,M,,*4B
$GPGGA,123601,5200.96221,N,422.896991,E,1,22,0.6,45.2,M,,M,,*4B
$GPGGA,123602,5200.96221,N,422.896991,E,1,19,0.7,45.2,M,,M,,*41
$GPGGA,123603,5200.96221,N,422.896991,E,1,21,0.6,45.2,M,,M,,*4A
$GPGGA,123604,5200.96221,N,422.896991,E,1,20,0.7,45.2,M,,M,,*4D
$GPGGA,123605,5200.96221,N,422.896991,E,1,19,0.7,45.2,M,,M,,*46
$GPGGA,123606,5200.96221,N,422.896991,E,1,18,0.7,45.2,M,,M,,*44
$GPGGA,123607,5200.96221,N,422.896991,E,1,16,0.8,45.2,M,,M,,*44
$GPGGA,123608,5200.96221,N,422.896991,E,1,18,0.7,45.2,M,,M,,*4A
$GPGGA,123609,5200.96221,N,422.896991,E,1,15,0.8,45.2,M,,M,,*49
$GPGGA,123610,5200.96221,N,422.896991,E,1,18,0.8,45.2,M,,M,,*4C
$GPGGA,123611,5200.96221,N,422.896991,E,1,21,0.8,45.2,M,,M,,*47
$GPGGA,123612,5200.96221,N,422.896991,E,1,19,0.7,45.2,M,,M,,*40
$GPGGA,123613,5200.962194,N,422.896843,E,1,20,0.7,45.2,M,,M,,*4A
$GPGGA,123614,5200.962194,N,422.896843,E,1,19,0.7,45.2,M,,M,,*47
$GPGGA,123615,5200.962237,N,422.897002,E,1,23,0.6,45.2,M,,M,,*48
$GPGGA,123616,5200.962237,N,422.897002,E,1,22,0.7,45.2,M,,M,,*4B
$GPGGA,123617,5200.962237,N,422.897002,E,1,19,0.7,45.2,M,,M,,*42
$GPGGA,123618,5200.962237,N,422.897002,E,1,20,0.7,45.2,M,,M,,*47
$GPGGA,123619,5200.962237,N,422.897002,E,1,20,0.7,45.2,M,,M,,*46
$GPGGA,123620,5200.962237,N,422.897002,E,1,20,0.7,45.2,M,,M,,*4C
$GPGGA,123621,5200.962237,N,422.897002,E,1,19,0.7,45.2,M,,M,,*47
$GPGGA,123622,5200.962237,N,422.897002,E,1,19,0.7,45.2,M,,M,,*44
$GPGGA,123623,5200.962237,N,422.897002,E,1,19,0.7,45.2,M,,M,,*45
$GPGGA,123624,5200.962237,N,422.897002,E,1,20,0.7,45.2,M,,M,,*48
$GPGGA,123625,5200.962237,N,422.897002,E,1,20,0.7,45.2,M,,M,,*49
$GPGGA,123626,5200.962237,N,422.897002,E,1,20,0.7,45.2,M,,M,,*4A
$GPGGA,123627,5200.962237,N,422.897002,E,1,18,0.8,45.2,M,,M,,*4F
$GPGGA,123628,5200.962237,N,422.897002,E,1,23,0.6,45.2,M,,M,,*46
$GPGGA,123629,5200.962237,N,422.897002,E,1,20,0.8,45.2,M,,M,,*4A
$GPGGA,123630,5200.962237,N,422.897002,E,1,19,0.7,45.2,M,,M,,*47
$GPGGA,123631,5200.962237,N,422.897002,E,1,20,0.7,45.2,M,,M,,*4C
$GPGGA,123632,5200.962237,N,422.897002,E,1,24,0.6,45.2,M,,M,,*4A
$GPGGA,123633,5200.962237,N,422.897002,E,1,23,0.7,45.2,M,,M,,*4D
$GPGGA,123634,5200.962237,N,422.897002,E,1,20,0.7,45.2,M,,M,,*49
$GPGGA,123635,5200.962339,N,422.897195,E,1,24,0.6,45.2,M,,M,,*4D
$GPGGA,123636,5200.962339,N,422.897195,E,1,21,0.6,45.2,M,,M,,*4B
$GPGGA,123637,5200.962339,N,422.897195,E,1,20,0.7,45.2,M,,M,,*4A
$GPGGA,123638,5200.962339,N,422.897195,E,1,23,0.6,45.2,M,,M,,*47
$GPGGA,123639,5200.962339,N,422.897195,E,1,20,0.7,45.2,M,,M,,*44
$GPGGA,123640,5200.962339,N,422.897195,E,1,20,0.7,45.2,M,,M,,*4A
$GPGGA,123641,5200.962339,N,422.897195,E,1,19,0.7,45.2,M,,M,,*41
$GPGGA,123642,5200.962339,N,422.897195,E,1,22,0.7,45.2,M,,M,,*4A
$GPGGA,123643,5200.962339,N,422.897195,E,1,23,0.7,45.2,M,,M,,*4A
$GPGGA,123644,5200.962339,N,422.897195,E,1,22,0.7,45.2,M,,M,,*4C
$GPGGA,123645,5200.962339,N,422.897195,E,1,24,0.6,45.2,M,,M,,*4A
$GPGGA,123646,5200.962339,N,422.897195,E,1,19,0.8,45.2,M,,M,,*49
$GPGGA,123647,5200.962339,N,422.897195,E,1,14,1,45.2,M,,M,,*4C
$GPGGA,123648,5200.962339,N,422.897195,E,1,23,0.6,45.2,M,,M,,*40
$GPGGA,123649,5200.962339,N,422.897195,E,1,23,0.6,45.2,M,,M,,*41
$GPGGA,123650,5200.962339,N,422.897195,E,1,22,0.7,45.2,M,,M,,*49
$GPGGA,123651,5200.962339,N,422.897195,E,1,22,0.6,45.2,M,,M,,*49
$GPGGA,123652,5200.962339,N,422.897195,E,1,24,0.6,45.2,M,,M,,*4C
$GPGGA,123653,5200.962216,N,422.897107,E,1,23,0.6,45.2,M,,M,,*4D
$GPGGA,123654,5200.962216,N,422.897107,E,1,22,0.7,45.2,M,,M,,*4A
$GPGGA,123655,5200.962248,N,422.897244,E,1,18,0.8,45.2,M,,M,,*42
$GPGGA,123656,5200.962248,N,422.897244,E,1,18,0.8,45.2,M,,M,,*41
$GPGGA,123657,5200.962248,N,422.897244,E,1,17,0.8,45.2,M,,M,,*4F
$GPGGA,123658,5200.962248,N,422.897244,E,1,16,0.8,45.2,M,,M,,*41
$GPGGA,123659,5200.962248,N,422.897244,E,1,17,0.9,45.2,M,,M,,*40
$GPGGA,123700,5200.962248,N,422.897244,E,1,16,0.9,45.2,M,,M,,*4C
$GPGGA,123701,5200.962248,N,422.897244,E,1,16,0.9,45.2,M,,M,,*4D
$GPGGA,123702,5200.962248,N,422.897244,E,1,18,0.8,45.2,M,,M,,*41
$GPGGA,123703,5200.962248,N,422.897244,E,1,19,0.8,45.2,M,,M,,*41
$GPGGA,123704,5200.962248,N,422.897244,E,1,20,0.7,45.2,M,,M,,*43
$GPGGA,123705,5200.962248,N,422.897244,E,1,21,0.7,45.2,M,,M,,*43
$GPGGA,123706,5200.962248,N,422.897244,E,1,18,0.8,45.2,M,,M,,*45
$GPGGA,123707,5200.962248,N,422.897244,E,1,18,0.8,45.2,M,,M,,*44
$GPGGA,123708,5200.962248,N,422.897244,E,1,19,0.8,45.2,M,,M,,*4A
$GPGGA,123709,5200.962248,N,422.897244,E,1,19,0.8,45.2,M,,M,,*4B
$GPGGA,123710,5200.962248,N,422.897244,E,1,17,0.8,45.2,M,,M,,*4D
$GPGGA,123711,5200.962248,N,422.897244,E,1,20,0.7,45.2,M,,M,,*47
$GPGGA,123712,5200.962248,N,422.897244,E,1,17,0.9,45.2,M,,M,,*4E
$GPGGA,123713,5200.962248,N,422.897244,E,1,17,0.8,45.2,M,,M,,*4E
$GPGGA,123714,5200.962248,N,422.897244,E,1,16,0.8,45.2,M,,M,,*48
$GPGGA,123715,5200.962142,N,422.897292,E,1,17,0.9,45.2,M,,M,,*4B
$GPGGA,123716,5200.962142,N,422.897292,E,1,18,0.8,45.2,M,,M,,*46
$GPGGA,123717,5200.962142,N,422.897292,E,1,18,0.8,45.2,M,,M,,*47
$GPGGA,123718,5200.962142,N,422.897292,E,1,17,0.8,45.2,M,,M,,*47
$GPGGA,123719,5200.962142,N,422.897292,E,1,18,0.7,45.2,M,,M,,*46
$GPGGA,123720,5200.962142,N,422.897292,E,1,18,0.8,45.2,M,,M,,*43
$GPGGA,123721,5200.962142,N,422.897292,E,1,19,0.8,45.2,M,,M,,*43
$GPGGA,123722,5200.962142,N,422.897292,E,1,18,0.9,45.2,M,,M,,*40
$GPGGA,123723,5200.962142,N,422.897292,E,1,17,0.9,45.2,M,,M,,*4E
$GPGGA,123724,5200.962142,N,422.897292,E,1,17,0.9,45.2,M,,M,,*49
$GPGGA,123725,5200.962142,N,422.897292,E,1,18,0.8,45.2,M,,M,,*46
$GPGGA,123726,5200.962142,N,422.897292,E,1,23,0.6,45.2,M,,M,,*43
$GPGGA,123727,5200.962142,N,422.897292,E,1,19,0.7,45.2,M,,M,,*4A
$GPGGA,123728,5200.962142,N,422.897292,E,1,18,0.7,45.2,M,,M,,*44
$GPGGA,123729,5200.962142,N,422.897292,E,1,17,0.7,45.2,M,,M,,*4A
$GPGGA,123730,5200.962142,N,422.897292,E,1,19,0.7,45.2,M,,M,,*4C
$GPGGA,123731,5200.962142,N,422.897292,E,1,18,0.7,45.2,M,,M,,*4C
$GPGGA,123732,5200.962142,N,422.897292,E,1,18,0.7,45.2,M,,M,,*4F
$GPGGA,123733,5200.962141,N,422.897209,E,1,19,0.7,45.2,M,,M,,*4E
$GPGGA,123734,5200.962141,N,422.897209,E,1,23,0.6,45.2,M,,M,,*41
$GPGGA,123735,5200.962494,N,422.897465,E,1,23,0.6,45.2,M,,M,,*41
$GPGGA,123736,5200.962494,N,422.897465,E,1,22,0.6,45.2,M,,M,,*43
$GPGGA,123737,5200.962494,N,422.897465,E,1,22,0.7,45.2,M,,M,,*43
$GPGGA,123738,5200.962494,N,422.897465,E,1,20,0.7,45.2,M,,M,,*4E
$GPGGA,123739,5200.962494,N,422.897465,E,1,20,0.7,45.2,M,,M,,*4F
$GPGGA,123740,5200.962494,N,422.897465,E,1,20,0.7,45.2,M,,M,,*41
$GPGGA,123741,5200.962494,N,422.897465,E,1,19,0.7,45.2,M,,M,,*4A
$GPGGA,123742,5200.962494,N,422.897465,E,1,18,0.8,45.2,M,,M,,*47
$GPGGA,123743,5200.962494,N,422.897465,E,1,19,0.7,45.2,M,,M,,*48
$GPGGA,123744,5200.962494,N,422.897465,E,1,21,0.7,45.2,M,,M,,*44
$GPGGA,123745,5200.962494,N,422.897465,E,1,20,0.7,45.2,M,,M,,*44
$GPGGA,123746,5200.962494,N,422.897465,E,1,20,0.7,45.2,M,,M,,*47
$GPGGA,123747,5200.962494,N,422.897465,E,1,20,0.6,45.2,M,,M,,*47
$GPGGA,123748,5200.962494,N,422.897465,E,1,22,0.6,45.2,M,,M,,*4A
$GPGGA,123749,5200.962494,N,422.897465,E,1,20,0.7,45.2,M,,M,,*48
$GPGGA,123750,5200.962494,N,422.897465,E,1,18,0.8,45.2,M,,M,,*44
$GPGGA,123751,5200.962494,N,422.897465,E,1,19,0.8,45.2,M,,M,,*44
$GPGGA,123752,5200.962494,N,422.897465,E,1,19,0.8,45.2,M,,M,,*47
$GPGGA,123753,5200.962349,N,422.897244,E,1,20,0.7,45.2,M,,M,,*41
$GPGGA,123754,5200.962349,N,422.897244,E,1,20,0.7,45.2,M,,M,,*46
$GPGGA,123755,5200.962349,N,422.897244,E,1,21,0.7,45.2,M,,M,,*46
$GPGGA,123756,5200.962349,N,422.897244,E,1,22,0.7,45.2,M,,M,,*46
$GPGGA,123757,5200.962349,N,422.897244,E,1,22,0.6,45.2,M,,M,,*46
$GPGGA,123758,5200.962349,N,422.897244,E,1,20,0.7,45.2,M,,M,,*4A
$GPGGA,123759,5200.962349,N,422.897244,E,1,22,0.7,45.2,M,,M,,*49
$GPGGA,123800,5200.962349,N,422.897244,E,1,20,0.7,45.2,M,,M,,*48
$GPGGA,123801,5200.962349,N,422.897244,E,1,20,0.7,45.2,M,,M,,*49
$GPGGA,123802,5200.962349,N,422.897244,E,1,19,0.7,45.2,M,,M,,*40
$GPGGA,123803,5200.962349,N,422.897244,E,1,19,0.7,45.2,M,,M,,*41
$GPGGA,123804,5200.962349,N,422.897244,E,1,18,0.8,45.2,M,,M,,*48
$GPGGA,123805,5200.962349,N,422.897244,E,1,20,0.7,45.2,M,,M,,*4D
$GPGGA,123806,5200.962349,N,422.897244,E,1,20,0.7,45.2,M,,M,,*4E
$GPGGA,123807,5200.962349,N,422.897244,E,1,19,0.7,45.2,M,,M,,*45
$GPGGA,123808,5200.962349,N,422.897244,E,1,21,0.6,45.2,M,,M,,*40
$GPGGA,123809,5200.962349,N,422.897244,E,1,19,0.7,45.2,M,,M,,*4B
$GPGGA,123810,5200.962349,N,422.897244,E,1,21,0.6,45.2,M,,M,,*49
$GPGGA,123811,5200.962349,N,422.897244,E,1,19,0.7,45.2,M,,M,,*42
$GPGGA,123812,5200.962349,N,422.897244,E,1,18,0.7,45.2,M,,M,,*40
$GPGGA,123813,5200.962424,N,422.897198,E,1,20,0.7,45.2,M,,M,,*44
$GPGGA,123814,5200.962424,N,422.897198,E,1,20,0.7,45.2,M,,M,,*43
$GPGGA,123815,5200.962516,N,422.897364,E,1,21,0.7,45.2,M,,M,,*42
$GPGGA,123816,5200.962516,N,422.897364,E,1,20,0.7,45.2,M,,M,,*40
$GPGGA,123817,5200.962516,N,422.897364,E,1,21,0.6,45.2,M,,M,,*41
$GPGGA,123818,5200.962516,N,422.897364,E,1,21,0.6,45.2,M,,M,,*4E
$GPGGA,123819,5200.962516,N,422.897364,E,1,20,0.7,45.2,M,,M,,*4F
$GPGGA,123820,5200.962516,N,422.897364,E,1,20,0.7,45.2,M,,M,,*45
$GPGGA,123821,5200.962516,N,422.897364,E,1,20,0.8,45.2,M,,M,,*4B
$GPGGA,123822,5200.962516,N,422.897364,E,1,21,0.7,45.2,M,,M,,*46
$GPGGA,123823,5200.962516,N,422.897364,E,1,20,0.7,45.2,M,,M,,*46
$GPGGA,123824,5200.962516,N,422.897364,E,1,19,0.7,45.2,M,,M,,*4B
$GPGGA,123825,5200.962516,N,422.897364,E,1,21,0.7,45.2,M,,M,,*41
$GPGGA,123826,5200.962516,N,422.897364,E,1,22,0.7,45.2,M,,M,,*41
$GPGGA,123827,5200.962516,N,422.897364,E,1,19,0.7,45.2,M,,M,,*48
$GPGGA,123828,5200.962516,N,422.897364,E,1,20,0.8,45.2,M,,M,,*42
$GPGGA,123829,5200.962516,N,422.897364,E,1,21,0.7,45.2,M,,M,,*4D
$GPGGA,123830,5200.962516,N,422.897364,E,1,22,0.7,45.2,M,,M,,*46
$GPGGA,123831,5200.962516,N,422.897364,E,1,21,0.7,45.2,M,,M,,*44
$GPGGA,123832,5200.962516,N,422.897364,E,1,23,0.6,45.2,M,,M,,*44
$GPGGA,123833,5200.962411,N,422.897254,E,1,20,0.7,45.2,M,,M,,*43
$GPGGA,123834,5200.962411,N,422.897254,E,1,21,0.6,45.2,M,,M,,*44
$GPGGA,123835,5200.962626,N,422.897536,E,1,20,0.7,45.2,M,,M,,*40
$GPGGA,123836,5200.962626,N,422.897536,E,1,18,0.7,45.2,M,,M,,*48
$GPGGA,123837,5200.962626,N,422.897536,E,1,21,0.6,45.2,M,,M,,*42
$GPGGA,123838,5200.962626,N,422.897536,E,1,21,0.6,45.2,M,,M,,*4D
$GPGGA,123839,5200.962626,N,422.897536,E,1,21,0.6,45.2,M,,M,,*4C
$GPGGA,123840,5200.962626,N,422.897536,E,1,23,0.6,45.2,M,,M,,*40
$GPGGA,123841,5200.962626,N,422.897536,E,1,20,0.7,45.2,M,,M,,*43
$GPGGA,123842,5200.962626,N,422.897536,E,1,20,0.7,45.2,M,,M,,*40
$GPGGA,123843,5200.962626,N,422.897536,E,1,20,0.7,45.2,M,,M,,*41
$GPGGA,123844,5200.962626,N,422.897536,E,1,21,0.7,45.2,M,,M,,*47
$GPGGA,123845,5200.962626,N,422.897536,E,1,21,0.7,45.2,M,,M,,*46
$GPGGA,123846,5200.962626,N,422.897536,E,1,20,0.7,45.2,M,,M,,*44
$GPGGA,123847,5200.962626,N,422.897536,E,1,18,0.8,45.2,M,,M,,*41
$GPGGA,123848,5200.962626,N,422.897536,E,1,23,0.6,45.2,M,,M,,*48
$GPGGA,123849,5200.962626,N,422.897536,E,1,18,0.8,45.2,M,,M,,*4F
$GPGGA,123850,5200.962626,N,422.897536,E,1,20,0.7,45.2,M,,M,,*43
$GPGGA,123851,5200.962626,N,422.897536,E,1,19,0.7,45.2,M,,M,,*48
$GPGGA,123852,5200.962626,N,422.897536,E,1,18,0.8,45.2,M,,M,,*45
$GPGGA,123853,5200.96258,N,422.897556,E,1,20,0.7,45.2,M,,M,,*49
$GPGGA,123854,5200.96258,N,422.897556,E,1,22,0.7,45.2,M,,M,,*4C
$GPGGA,123855,5200.962635,N,422.89771,E,1,23,0.6,45.2,M,,M,,*40
$GPGGA,123856,5200.962635,N,422.89771,E,1,25,0.6,45.2,M,,M,,*45
$GPGGA,123857,5200.962635,N,422.89771,E,1,23,0.7,45.2,M,,M,,*43
$GPGGA,123858,5200.962635,N,422.89771,E,1,20,0.7,45.2,M,,M,,*4F
$GPGGA,123859,5200.962635,N,422.89771,E,1,20,0.7,45.2,M,,M,,*4E
$GPGGA,123900,5200.962635,N,422.89771,E,1,21,0.6,45.2,M,,M,,*43
$GPGGA,123901,5200.962635,N,422.89771,E,1,21,0.7,45.2,M,,M,,*43
$GPGGA,123902,5200.962635,N,422.89771,E,1,20,0.7,45.2,M,,M,,*41
$GPGGA,123903,5200.962635,N,422.89771,E,1,23,0.6,45.2,M,,M,,*42
$GPGGA,123904,5200.962635,N,422.89771,E,1,21,0.6,45.2,M,,M,,*47
$GPGGA,123905,5200.962635,N,422.89771,E,1,20,0.7,45.2,M,,M,,*46
$GPGGA,123906,5200.962635,N,422.89771,E,1,20,0.7,45.2,M,,M,,*45
$GPGGA,123907,5200.962635,N,422.89771,E,1,22,0.6,45.2,M,,M,,*47
$GPGGA,123908,5200.962635,N,422.89771,E,1,22,0.6,45.2,M,,M,,*48
$GPGGA,123909,5200.962635,N,422.89771,E,1,20,0.7,45.2,M,,M,,*4A
$GPGGA,123910,5200.962635,N,422.89771,E,1,24,0.6,45.2,M,,M,,*47
$GPGGA,123911,5200.962635,N,422.89771,E,1,23,0.6,45.2,M,,M,,*41
$GPGGA,123912,5200.962635,N,422.89771,E,1,21,0.6,45.2,M,,M,,*40
$GPGGA,123913,5200.962493,N,422.897577,E,1,21,0.7,45.2,M,,M,,*4D
$GPGGA,123914,5200.962493,N,422.897577,E,1,20,0.7,45.2,M,,M,,*4B
$GPGGA,123915,5200.962528,N,422.897736,E,1,18,0.7,45.2,M,,M,,*47
$GPGGA,123916,5200.962528,N,422.897736,E,1,21,0.7,45.2,M,,M,,*4E
$GPGGA,123917,5200.962528,N,422.897736,E,1,20,0.8,45.2,M,,M,,*41
$GPGGA,123918,5200.962528,N,422.897736,E,1,19,0.7,45.2,M,,M,,*4B
$GPGGA,123919,5200.962528,N,422.897736,E,1,20,0.7,45.2,M,,M,,*40
$GPGGA,123920,5200.962528,N,422.897736,E,1,21,0.6,45.2,M,,M,,*4A
$GPGGA,123921,5200.962528,N,422.897736,E,1,21,0.7,45.2,M,,M,,*4A
$GPGGA,123922,5200.962528,N,422.897736,E,1,22,0.7,45.2,M,,M,,*4A
$GPGGA,123923,5200.962528,N,422.897736,E,1,22,0.6,45.2,M,,M,,*4A
$GPGGA,123924,5200.962528,N,422.897736,E,1,22,0.6,45.2,M,,M,,*4D
$GPGGA,123925,5200.962528,N,422.897736,E,1,21,0.7,45.2,M,,M,,*4E
$GPGGA,123926,5200.962528,N,422.897736,E,1,22,0.6,45.2,M,,M,,*4F
$GPGGA,123927,5200.962528,N,422.897736,E,1,21,0.6,45.2,M,,M,,*4D
$GPGGA,123928,5200.962528,N,422.897736,E,1,21,0.6,45.2,M,,M,,*42
$GPGGA,123929,5200.962528,N,422.897736,E,1,18,0.7,45.2,M,,M,,*48
$GPGGA,123930,5200.962528,N,422.897736,E,1,19,0.7,45.2,M,,M,,*41
$GPGGA,123931,5200.962528,N,422.897736,E,1,21,0.7,45.2,M,,M,,*4B
$GPGGA,123932,5200.962528,N,422.897736,E,1,19,0.8,45.2,M,,M,,*4C
$GPGGA,123933,5200.962545,N,422.897714,E,1,21,0.7,45.2,M,,M,,*42
$GPGGA,123934,5200.962545,N,422.897714,E,1,21,0.7,45.2,M,,M,,*45
$GPGGA,123935,5200.962531,N,422.897869,E,1,21,0.7,45.2,M,,M,,*42
$GPGGA,123936,5200.962531,N,422.897869,E,1,23,0.7,45.2,M,,M,,*43
$GPGGA,123937,5200.962531,N,422.897869,E,1,21,0.7,45.2,M,,M,,*40
$GPGGA,123938,5200.962531,N,422.897869,E,1,24,0.6,45.2,M,,M,,*4B
$GPGGA,123939,5200.962531,N,422.897869,E,1,21,0.6,45.2,M,,M,,*4F
$GPGGA,123940,5200.962531,N,422.897869,E,1,23,0.6,45.2,M,,M,,*43
$GPGGA,123941,5200.962531,N,422.897869,E,1,21,0.7,45.2,M,,M,,*41
$GPGGA,123942,5200.962531,N,422.897869,E,1,23,0.6,45.2,M,,M,,*41
$GPGGA,123943,5200.962531,N,422.897869,E,1,24,0.6,45.2,M,,M,,*47
$GPGGA,123944,5200.962531,N,422.897869,E,1,23,0.6,45.2,M,,M,,*47
$GPGGA,123945,5200.962531,N,422.897869,E,1,22,0.6,45.2,M,,M,,*47
$GPGGA,123946,5200.962531,N,422.897869,E,1,20,0.7,45.2,M,,M,,*47
$GPGGA,123947,5200.962531,N,422.897869,E,1,23,0.6,45.2,M,,M,,*44
$GPGGA,123948,5200.962531,N,422.897869,E,1,23,0.6,45.2,M,,M,,*4B
$GPGGA,123949,5200.962531,N,422.897869,E,1,20,0.7,45.2,M,,M,,*48
$GPGGA,123950,5200.962531,N,422.897869,E,1,22,0.6,45.2,M,,M,,*43
$GPGGA,123951,5200.962531,N,422.897869,E,1,22,0.6,45.2,M,,M,,*42
$GPGGA,123952,5200.962531,N,422.897869,E,1,20,0.7,45.2,M,,M,,*42
$GPGGA,123953,5200.962553,N,422.897873,E,1,22,0.6,45.2,M,,M,,*4F
$GPGGA,123954,5200.962553,N,422.897873,E,1,21,0.6,45.2,M,,M,,*4B
$GPGGA,123955,5200.962675,N,422.898015,E,1,20,0.7,45.2,M,,M,,*4A
$GPGGA,123956,5200.962675,N,422.898015,E,1,21,0.7,45.2,M,,M,,*48
$GPGGA,123957,5200.962675,N,422.898015,E,1,22,0.6,45.2,M,,M,,*4B
$GPGGA,123958,5200.962675,N,422.898015,E,1,20,0.7,45.2,M,,M,,*47
$GPGGA,123959,5200.962675,N,422.898015,E,1,21,0.7,45.2,M,,M,,*47
$GPGGA,124000,5200.962675,N,422.898015,E,1,22,0.6,45.2,M,,M,,*47
$GPGGA,124001,5200.962675,N,422.898015,E,1,22,0.6,45.2,M,,M,,*46
$GPGGA,124002,5200.962675,N,422.898015,E,1,22,0.6,45.2,M,,M,,*45
$GPGGA,124003,5200.962675,N,422.898015,E,1,21,0.7,45.2,M,,M,,*46
$GPGGA,124004,5200.962675,N,422.898015,E,1,23,0.6,45.2,M,,M,,*42
$GPGGA,124005,5200.962675,N,422.898015,E,1,23,0.6,45.2,M,,M,,*43
$GPGGA,124006,5200.962675,N,422.898015,E,1,24,0.6,45.2,M,,M,,*47
$GPGGA,124007,5200.962675,N,422.898015,E,1,22,0.7,45.2,M,,M,,*41
$GPGGA,124008,5200.962675,N,422.898015,E,1,24,0.6,45.2,M,,M,,*49
$GPGGA,124009,5200.962675,N,422.898015,E,1,21,0.7,45.2,M,,M,,*4C
$GPGGA,124010,5200.962675,N,422.898015,E,1,24,0.6,45.2,M,,M,,*40
$GPGGA,124011,5200.962675,N,422.898015,E,1,21,0.7,45.2,M,,M,,*45
$GPGGA,124012,5200.962675,N,422.898015,E,1,23,0.6,45.2,M,,M,,*45
$GPGGA,124013,5200.962555,N,422.897809,E,1,20,0.7,45.2,M,,M,,*4D
$GPGGA,124014,5200.962555,N,422.897809,E,1,21,0.7,45.2,M,,M,,*4B
$GPGGA,124015,5200.962464,N,422.897863,E,1,22,0.6,45.2,M,,M,,*47
$GPGGA,124016,5200.962464,N,422.897863,E,1,19,0.8,45.2,M,,M,,*42
$GPGGA,124017,5200.962464,N,422.897863,E,1,23,0.6,45.2,M,,M,,*44
$GPGGA,124018,5200.962464,N,422.897863,E,1,20,0.7,45.2,M,,M,,*49
$GPGGA,124019,5200.962464,N,422.897863,E,1,21,0.7,45.2,M,,M,,*49
$GPGGA,124020,5200.962464,N,422.897863,E,1,22,0.6,45.2,M,,M,,*41
$GPGGA,124021,5200.962464,N,422.897863,E,1,20,0.7,45.2,M,,M,,*43
$GPGGA,124022,5200.962464,N,422.897863,E,1,17,0.7,45.2,M,,M,,*44
$GPGGA,124023,5200.962464,N,422.897863,E,1,17,0.7,45.2,M,,M,,*45
$GPGGA,124024,5200.962464,N,422.897863,E,1,22,0.6,45.2,M,,M,,*45
$GPGGA,124025,5200.962464,N,422.897863,E,1,21,0.7,45.2,M,,M,,*46
$GPGGA,124026,5200.962464,N,422.897863,E,1,20,0.7,45.2,M,,M,,*44
$GPGGA,124027,5200.962464,N,422.897863,E,1,19,0.7,45.2,M,,M,,*4F
$GPGGA,124028,5200.962464,N,422.897863,E,1,22,0.6,45.2,M,,M,,*49
$GPGGA,124029,5200.962464,N,422.897863,E,1,23,0.6,45.2,M,,M,,*49
$GPGGA,124030,5200.962464,N,422.897863,E,1,24,0.6,45.2,M,,M,,*46
$GPGGA,124031,5200.962464,N,422.897863,E,1,19,0.7,45.2,M,,M,,*48
$GPGGA,124032,5200.962464,N,422.897863,E,1,26,0.6,45.2,M,,M,,*46
$GPGGA,124033,5200.962464,N,422.897863,E,1,23,0.6,45.2,M,,M,,*42
$GPGGA,124034,5200.962464,N,422.897863,E,1,24,0.6,45.2,M,,M,,*42
$GPGGA,124035,5200.962538,N,422.897978,E,1,22,0.6,45.2,M,,M,,*46
$GPGGA,124036,5200.962538,N,422.897978,E,1,21,0.6,45.2,M,,M,,*46
$GPGGA,124037,5200.962538,N,422.897978,E,1,24,0.6,45.2,M,,M,,*42
$GPGGA,124038,5200.962538,N,422.897978,E,1,24,0.6,45.2,M,,M,,*4D
$GPGGA,124039,5200.962538,N,422.897978,E,1,23,0.6,45.2,M,,M,,*4B
$GPGGA,124040,5200.962538,N,422.897978,E,1,23,0.6,45.2,M,,M,,*45
$GPGGA,124041,5200.962538,N,422.897978,E,1,20,0.6,45.2,M,,M,,*47
$GPGGA,124042,5200.962538,N,422.897978,E,1,20,0.7,45.2,M,,M,,*45
$GPGGA,124043,5200.962538,N,422.897978,E,1,22,0.6,45.2,M,,M,,*47
$GPGGA,124044,5200.962538,N,422.897978,E,1,22,0.6,45.2,M,,M,,*40
$GPGGA,124045,5200.962538,N,422.897978,E,1,23,0.6,45.2,M,,M,,*40
$GPGGA,124046,5200.962538,N,422.897978,E,1,21,0.6,45.2,M,,M,,*41
$GPGGA,124047,5200.962538,N,422.897978,E,1,24,0.6,45.2,M,,M,,*45
$GPGGA,124048,5200.962538,N,422.897978,E,1,23,0.6,45.2,M,,M,,*4D
$GPGGA,124049,5200.962538,N,422.897978,E,1,23,0.6,45.2,M,,M,,*4C
$GPGGA,124050,5200.962538,N,422.897978,E,1,21,0.6,45.2,M,,M,,*46
$GPGGA,124051,5200.962538,N,422.897978,E,1,21,0.6,45.2,M,,M,,*47
$GPGGA,124052,5200.962538,N,422.897978,E,1,22,0.6,45.2,M,,M,,*47
$GPGGA,124053,5200.962344,N,422.89757,E,1,24,0.6,45.2,M,,M,,*49
$GPGGA,124054,5200.962344,N,422.89757,E,1,21,0.7,45.2,M,,M,,*4A
$GPGGA,124055,5200.962501,N,422.897808,E,1,21,0.7,45.2,M,,M,,*4E
$GPGGA,124056,5200.962501,N,422.897808,E,1,20,0.7,45.2,M,,M,,*4C
$GPGGA,124057,5200.962501,N,422.897808,E,1,18,0.7,45.2,M,,M,,*46
$GPGGA,124058,5200.962501,N,422.897808,E,1,21,0.6,45.2,M,,M,,*42
$GPGGA,124059,5200.962501,N,422.897808,E,1,24,0.6,45.2,M,,M,,*46
$GPGGA,124100,5200.962501,N,422.897808,E,1,23,0.6,45.2,M,,M,,*4C
$GPGGA,124101,5200.962501,N,422.897808,E,1,19,0.7,45.2,M,,M,,*45
$GPGGA,124102,5200.962501,N,422.897808,E,1,20,0.7,45.2,M,,M,,*4C
$GPGGA,124103,5200.962501,N,422.897808,E,1,19,0.7,45.2,M,,M,,*47
$GPGGA,124104,5200.962501,N,422.897808,E,1,19,0.7,45.2,M,,M,,*40
$GPGGA,124105,5200.962501,N,422.897808,E,1,21,0.7,45.2,M,,M,,*4A
$GPGGA,124106,5200.962501,N,422.897808,E,1,20,0.7,45.2,M,,M,,*48
$GPGGA,124107,5200.962501,N,422.897808,E,1,20,0.7,45.2,M,,M,,*49
$GPGGA,124108,5200.962501,N,422.897808,E,1,20,0.7,45.2,M,,M,,*46
$GPGGA,124109,5200.962501,N,422.897808,E,1,21,0.7,45.2,M,,M,,*46
$GPGGA,124110,5200.962501,N,422.897808,E,1,21,0.7,45.2,M,,M,,*4E
$GPGGA,124111,5200.962501,N,422.897808,E,1,21,0.7,45.2,M,,M,,*4F
$GPGGA,124112,5200.962501,N,422.897808,E,1,22,0.6,45.2,M,,M,,*4E
$GPGGA,124113,5200.96241,N,422.897721,E,1,22,0.6,45.2,M,,M,,*4A
$GPGGA,124114,5200.96241,N,422.897721,E,1,21,0.7,45.2,M,,M,,*4F
$GPGGA,124115,5200.96263,N,422.897903,E,1,21,0.6,45.2,M,,M,,*41
$GPGGA,124116,5200.96263,N,422.897903,E,1,23,0.6,45.2,M,,M,,*40
$GPGGA,124117,5200.96263,N,422.897903,E,1,22,0.6,45.2,M,,M,,*40
$GPGGA,124118,5200.96263,N,422.897903,E,1,24,0.5,45.2,M,,M,,*4A
$GPGGA,124119,5200.96263,N,422.897903,E,1,20,0.7,45.2,M,,M,,*4D
$GPGGA,124120,5200.96263,N,422.897903,E,1,24,0.6,45.2,M,,M,,*42
$GPGGA,124121,5200.96263,N,422.897903,E,1,22,0.7,45.2,M,,M,,*44
$GPGGA,124122,5200.96263,N,422.897903,E,1,17,0.8,45.2,M,,M,,*4E
$GPGGA,124123,5200.96263,N,422.897903,E,1,19,0.7,45.2,M,,M,,*4E
$GPGGA,124124,5200.96263,N,422.897903,E,1,19,0.7,45.2,M,,M,,*49
$GPGGA,124125,5200.96263,N,422.897903,E,1,22,0.6,45.2,M,,M,,*41
$GPGGA,124126,5200.96263,N,422.897903,E,1,21,0.7,45.2,M,,M,,*40
$GPGGA,124127,5200.96263,N,422.897903,E,1,19,0.7,45.2,M,,M,,*4A
$GPGGA,124128,5200.96263,N,422.897903,E,1,16,0.8,45.2,M,,M,,*45
$GPGGA,124129,5200.96263,N,422.897903,E,1,18,0.7,45.2,M,,M,,*45
$GPGGA,124130,5200.96263,N,422.897903,E,1,18,0.8,45.2,M,,M,,*42
$GPGGA,124131,5200.96263,N,422.897903,E,1,22,0.6,45.2,M,,M,,*44
$GPGGA,124132,5200.96263,N,422.897903,E,1,24,0.6,45.2,M,,M,,*41
$GPGGA,124133,5200.962591,N,422.897836,E,1,21,0.7,45.2,M,,M,,*4B
$GPGGA,124134,5200.962591,N,422.897836,E,1,22,0.6,45.2,M,,M,,*4E
$GPGGA,124135,5200.962711,N,422.898025,E,1,23,0.6,45.2,M,,M,,*41
$GPGGA,124136,5200.962711,N,422.898025,E,1,22,0.6,45.2,M,,M,,*43
$GPGGA,124137,5200.962711,N,422.898025,E,1,19,0.7,45.2,M,,M,,*4B
$GPGGA,124138,5200.962711,N,422.898025,E,1,22,0.6,45.2,M,,M,,*4D
$GPGGA,124139,5200.962711,N,422.898025,E,1,21,0.6,45.2,M,,M,,*4F
$GPGGA,124140,5200.962711,N,422.898025,E,1,22,0.6,45.2,M,,M,,*42
$GPGGA,124141,5200.962711,N,422.898025,E,1,24,0.6,45.2,M,,M,,*45
$GPGGA,124142,5200.962711,N,422.898025,E,1,21,0.6,45.2,M,,M,,*43
$GPGGA,124143,5200.962711,N,422.898025,E,1,23,0.6,45.2,M,,M,,*40
$GPGGA,124144,5200.962711,N,422.898025,E,1,24,0.6,45.2,M,,M,,*40
$GPGGA,124145,5200.962711,N,422.898025,E,1,24,0.6,45.2,M,,M,,*41
$GPGGA,124146,5200.962711,N,422.898025,E,1,23,0.6,45.2,M,,M,,*45
$GPGGA,124147,5200.962711,N,422.898025,E,1,24,0.6,45.2,M,,M,,*43
$GPGGA,124148,5200.962711,N,422.898025,E,1,20,0.7,45.2,M,,M,,*49
$GPGGA,124149,5200.962711,N,422.898025,E,1,19,0.7,45.2,M,,M,,*42
$GPGGA,124150,5200.962711,N,422.898025,E,1,24,0.6,45.2,M,,M,,*45
$GPGGA,124151,5200.962711,N,422.898025,E,1,25,0.6,45.2,M,,M,,*45
$GPGGA,124152,5200.962711,N,422.898025,E,1,22,0.6,45.2,M,,M,,*41
$GPGGA,124153,5200.962621,N,422.897901,E,1,23,0.6,45.2,M,,M,,*43
$GPGGA,124154,5200.962621,N,422.897901,E,1,20,0.7,45.2,M,,M,,*46
$GPGGA,124155,5200.962621,N,422.897901,E,1,21,0.6,45.2,M,,M,,*47
$GPGGA,124156,5200.962621,N,422.897901,E,1,24,0.6,45.2,M,,M,,*41
$GPGGA,124157,5200.962621,N,422.897901,E,1,19,0.7,45.2,M,,M,,*4F
$GPGGA,124158,5200.962621,N,422.897901,E,1,22,0.6,45.2,M,,M,,*49
$GPGGA,124159,5200.962621,N,422.897901,E,1,21,0.7,45.2,M,,M,,*4A
$GPGGA,124200,5200.962621,N,422.897901,E,1,22,0.7,45.2,M,,M,,*46
$GPGGA,124201,5200.962621,N,422.897901,E,1,24,0.6,45.2,M,,M,,*40
$GPGGA,124202,5200.962621,N,422.897901,E,1,23,0.6,45.2,M,,M,,*44
$GPGGA,124203,5200.962621,N,422.897901,E,1,21,0.7,45.2,M,,M,,*46
$GPGGA,124204,5200.962621,N,422.897901,E,1,22,0.6,45.2,M,,M,,*43
$GPGGA,124205,5200.962621,N,422.897901,E,1,21,0.6,45.2,M,,M,,*41
$GPGGA,124206,5200.962621,N,422.897901,E,1,23,0.6,45.2,M,,M,,*40
$GPGGA,124207,5200.962621,N,422.897901,E,1,21,0.6,45.2,M,,M,,*43
$GPGGA,124208,5200.962621,N,422.897901,E,1,20,0.7,45.2,M,,M,,*4C
$GPGGA,124209,5200.962621,N,422.897901,E,1,19,0.7,45.2,M,,M,,*47
$GPGGA,124210,5200.962621,N,422.897901,E,1,19,0.6,45.2,M,,M,,*4E
$GPGGA,124211,5200.962621,N,422.897901,E,1,24,0.6,45.2,M,,M,,*41
$GPGGA,124212,5200.962621,N,422.897901,E,1,21,0.6,45.2,M,,M,,*47
$GPGGA,124213,5200.96253,N,422.897606,E,1,24,0.6,45.2,M,,M,,*48
$GPGGA,124214,5200.96253,N,422.897606,E,1,26,0.5,45.2,M,,M,,*4E
$GPGGA,124215,5200.962572,N,422.897796,E,1,22,0.6,45.2,M,,M,,*46
$GPGGA,124216,5200.962572,N,422.897796,E,1,22,0.6,45.2,M,,M,,*45
$GPGGA,124217,5200.962572,N,422.897796,E,1,19,0.7,45.2,M,,M,,*4D
$GPGGA,124218,5200.962572,N,422.897796,E,1,17,0.8,45.2,M,,M,,*43
$GPGGA,124219,5200.962572,N,422.897796,E,1,17,0.7,45.2,M,,M,,*4D
$GPGGA,124220,5200.962572,N,422.897796,E,1,23,0.6,45.2,M,,M,,*41
$GPGGA,124221,5200.962572,N,422.897796,E,1,18,0.7,45.2,M,,M,,*49
$GPGGA,124222,5200.962572,N,422.897796,E,1,20,0.6,45.2,M,,M,,*40
$GPGGA,124223,5200.962572,N,422.897796,E,1,13,0.8,45.2,M,,M,,*4F
$GPGGA,124224,5200.962572,N,422.897796,E,1,18,0.7,45.2,M,,M,,*4C
$GPGGA,124225,5200.962572,N,422.897796,E,1,22,0.6,45.2,M,,M,,*45
$GPGGA,124226,5200.962572,N,422.897796,E,1,22,0.6,45.2,M,,M,,*46
$GPGGA,124227,5200.962572,N,422.897796,E,1,24,0.6,45.2,M,,M,,*41
$GPGGA,124228,5200.962572,N,422.897796,E,1,26,0.6,45.2,M,,M,,*4C
$GPGGA,124229,5200.962572,N,422.897796,E,1,22,0.6,45.2,M,,M,,*49
$GPGGA,124230,5200.962572,N,422.897796,E,1,22,0.6,45.2,M,,M,,*41
$GPGGA,124231,5200.962572,N,422.897796,E,1,24,0.6,45.2,M,,M,,*46
$GPGGA,124232,5200.962572,N,422.897796,E,1,23,0.6,45.2,M,,M,,*42
$GPGGA,124233,5200.962572,N,422.897796,E,1,21,0.6,45.2,M,,M,,*41
$GPGGA,124234,5200.962572,N,422.897796,E,1,20,0.7,45.2,M,,M,,*46
$GPGGA,124235,5200.962572,N,422.897796,E,1,20,0.6,45.2,M,,M,,*46
$GPGGA,124236,5200.962572,N,422.897796,E,1,20,0.6,45.2,M,,M,,*45
$GPGGA,124237,5200.962572,N,422.897796,E,1,20,0.6,45.2,M,,M,,*44
$GPGGA,124238,5200.962572,N,422.897796,E,1,23,0.6,45.2,M,,M,,*48
$GPGGA,124239,5200.962572,N,422.897796,E,1,20,0.6,45.2,M,,M,,*4A
$GPGGA,124240,5200.962572,N,422.897796,E,1,18,0.7,45.2,M,,M,,*4E
$GPGGA,124241,5200.962572,N,422.897796,E,1,21,0.6,45.2,M,,M,,*44
$GPGGA,124242,5200.962572,N,422.897796,E,1,21,0.6,45.2,M,,M,,*47
$GPGGA,124243,5200.962572,N,422.897796,E,1,20,0.6,45.2,M,,M,,*47
$GPGGA,124244,5200.962572,N,422.897796,E,1,22,0.6,45.2,M,,M,,*42
$GPGGA,124245,5200.962572,N,422.897796,E,1,23,0.6,45.2,M,,M,,*42
$GPGGA,124246,5200.962572,N,422.897796,E,1,24,0.6,45.2,M,,M,,*46
$GPGGA,124247,5200.962572,N,422.897796,E,1,21,0.6,45.2,M,,M,,*42
$GPGGA,124248,5200.962572,N,422.897796,E,1,22,0.6,45.2,M,,M,,*4E
$GPGGA,124249,5200.962572,N,422.897796,E,1,20,0.7,45.2,M,,M,,*4C
$GPGGA,124250,5200.962572,N,422.897796,E,1,19,0.7,45.2,M,,M,,*4E
$GPGGA,124251,5200.962572,N,422.897796,E,1,16,0.9,45.2,M,,M,,*4E
$GPGGA,124252,5200.962572,N,422.897796,E,1,17,0.9,45.2,M,,M,,*4C
$GPGGA,124253,5200.962351,N,422.897583,E,1,16,0.9,45.2,M,,M,,*4D
$GPGGA,124254,5200.962351,N,422.897583,E,1,18,0.9,45.2,M,,M,,*44
$GPGGA,124255,5200.962351,N,422.897583,E,1,19,0.8,45.2,M,,M,,*45
$GPGGA,124256,5200.962351,N,422.897583,E,1,22,0.6,45.2,M,,M,,*40
$GPGGA,124257,5200.962351,N,422.897583,E,1,24,0.6,45.2,M,,M,,*47
$GPGGA,124258,5200.962351,N,422.897583,E,1,18,1,45.2,M,,M,,*40
$GPGGA,124259,5200.962351,N,422.897583,E,1,21,0.6,45.2,M,,M,,*4C
$GPGGA,124300,5200.962351,N,422.897583,E,1,23,0.6,45.2,M,,M,,*43
$GPGGA,124301,5200.962351,N,422.897583,E,1,19,0.7,45.2,M,,M,,*4A
$GPGGA,124302,5200.962351,N,422.897583,E,1,18,0.7,45.2,M,,M,,*48
$GPGGA,124303,5200.962351,N,422.897583,E,1,18,0.7,45.2,M,,M,,*49
$GPGGA,124304,5200.962351,N,422.897583,E,1,18,0.7,45.2,M,,M,,*4E
$GPGGA,124305,5200.962351,N,422.897583,E,1,20,0.7,45.2,M,,M,,*44
$GPGGA,124306,5200.962351,N,422.897583,E,1,18,0.7,45.2,M,,M,,*4C
$GPGGA,124307,5200.962351,N,422.897583,E,1,19,0.7,45.2,M,,M,,*4C
$GPGGA,124308,5200.962351,N,422.897583,E,1,21,0.6,45.2,M,,M,,*49
$GPGGA,124309,5200.962351,N,422.897583,E,1,19,0.7,45.2,M,,M,,*42
$GPGGA,124310,5200.962351,N,422.897583,E,1,19,0.6,45.2,M,,M,,*4B
$GPGGA,124311,5200.962351,N,422.897583,E,1,25,0.6,45.2,M,,M,,*45
$GPGGA,124312,5200.962351,N,422.897583,E,1,16,0.8,45.2,M,,M,,*48
$GPGGA,124313,5200.962144,N,422.897449,E,1,15,0.8,45.2,M,,M,,*4B
$GPGGA,124314,5200.962144,N,422.897449,E,1,17,0.7,45.2,M,,M,,*41
$GPGGA,124315,5200.962341,N,422.897524,E,1,14,0.8,45.2,M,,M,,*41
$GPGGA,124316,5200.962341,N,422.897524,E,1,17,0.7,45.2,M,,M,,*4E
$GPGGA,124317,5200.962341,N,422.897524,E,1,16,0.8,45.2,M,,M,,*41
$GPGGA,124318,5200.962341,N,422.897524,E,1,17,0.8,45.2,M,,M,,*4F
$GPGGA,124319,5200.962341,N,422.897524,E,1,23,0.6,45.2,M,,M,,*47
$GPGGA,124320,5200.962341,N,422.897524,E,1,19,0.7,45.2,M,,M,,*45
$GPGGA,124321,5200.962341,N,422.897524,E,1,25,0.5,45.2,M,,M,,*49
$GPGGA,124322,5200.962341,N,422.897524,E,1,20,0.6,45.2,M,,M,,*4C
$GPGGA,124323,5200.962341,N,422.897524,E,1,19,0.7,45.2,M,,M,,*46
$GPGGA,124324,5200.962341,N,422.897524,E,1,20,0.6,45.2,M,,M,,*4A
$GPGGA,124325,5200.962341,N,422.897524,E,1,18,0.8,45.2,M,,M,,*4E
$GPGGA,124326,5200.962341,N,422.897524,E,1,20,0.7,45.2,M,,M,,*49
$GPGGA,124327,5200.962341,N,422.897524,E,1,19,0.7,45.2,M,,M,,*42
$GPGGA,124328,5200.962341,N,422.897524,E,1,19,0.7,45.2,M,,M,,*4D
$GPGGA,124329,5200.962341,N,422.897524,E,1,21,0.6,45.2,M,,M,,*46
$GPGGA,124330,5200.962341,N,422.897524,E,1,21,0.6,45.2,M,,M,,*4E
$GPGGA,124331,5200.962341,N,422.897524,E,1,22,0.6,45.2,M,,M,,*4C
$GPGGA,124332,5200.962341,N,422.897524,E,1,19,0.7,45.2,M,,M,,*46
$GPGGA,124333,5200.962157,N,422.897347,E,1,21,0.6,45.2,M,,M,,*4B
$GPGGA,124334,5200.962157,N,422.897347,E,1,23,0.6,45.2,M,,M,,*4E
$GPGGA,124335,5200.962321,N,422.897505,E,1,21,0.6,45.2,M,,M,,*4E
$GPGGA,124336,5200.962321,N,422.897505,E,1,18,0.7,45.2,M,,M,,*46
$GPGGA,124337,5200.962321,N,422.897505,E,1,19,0.8,45.2,M,,M,,*49
$GPGGA,124338,5200.962321,N,422.897505,E,1,17,0.8,45.2,M,,M,,*48
$GPGGA,124339,5200.962321,N,422.897505,E,1,25,0.5,45.2,M,,M,,*45
$GPGGA,124340,5200.962321,N,422.897505,E,1,23,0.6,45.2,M,,M,,*4E
$GPGGA,124341,5200.962321,N,422.897505,E,1,16,0.8,45.2,M,,M,,*47
$GPGGA,124342,5200.962321,N,422.897505,E,1,21,0.6,45.2,M,,M,,*4E
$GPGGA,124343,5200.962321,N,422.897505,E,1,21,0.6,45.2,M,,M,,*4F
$GPGGA,124344,5200.962321,N,422.897505,E,1,20,0.6,45.2,M,,M,,*49
$GPGGA,124345,5200.962321,N,422.897505,E,1,21,0.6,45.2,M,,M,,*49
$GPGGA,124346,5200.962321,N,422.897505,E,1,21,0.6,45.2,M,,M,,*4A
$GPGGA,124347,5200.962321,N,422.897505,E,1,21,0.6,45.2,M,,M,,*4B
$GPGGA,124348,5200.962321,N,422.897505,E,1,20,0.7,45.2,M,,M,,*44
$GPGGA,124349,5200.962321,N,422.897505,E,1,20,0.7,45.2,M,,M,,*45
$GPGGA,124350,5200.962321,N,422.897505,E,1,21,0.6,45.2,M,,M,,*4D
$GPGGA,124351,5200.962321,N,422.897505,E,1,22,0.6,45.2,M,,M,,*4F
$GPGGA,124352,5200.962321,N,422.897505,E,1,22,0.6,45.2,M,,M,,*4C
$GPGGA,124353,5200.962196,N,422.897422,E,1,18,0.8,45.2,M,,M,,*40
$GPGGA,124354,5200.962196,N,422.897422,E,1,21,0.6,45.2,M,,M,,*43
$GPGGA,124355,5200.962319,N,422.897599,E,1,18,0.7,45.2,M,,M,,*4D
$GPGGA,124356,5200.962319,N,422.897599,E,1,23,0.6,45.2,M,,M,,*47
$GPGGA,124357,5200.962319,N,422.897599,E,1,22,0.6,45.2,M,,M,,*47
$GPGGA,124358,5200.962319,N,422.897599,E,1,24,0.6,45.2,M,,M,,*4E
$GPGGA,124359,5200.962319,N,422.897599,E,1,24,0.6,45.2,M,,M,,*4F
$GPGGA,124400,5200.962319,N,422.897599,E,1,24,0.6,45.2,M,,M,,*44
$GPGGA,124401,5200.962319,N,422.897599,E,1,23,0.6,45.2,M,,M,,*42
$GPGGA,124402,5200.962319,N,422.897599,E,1,23,0.6,45.2,M,,M,,*41
$GPGGA,124403,5200.962319,N,422.897599,E,1,23,0.6,45.2,M,,M,,*40
$GPGGA,124404,5200.962319,N,422.897599,E,1,24,0.6,45.2,M,,M,,*40
$GPGGA,124405,5200.962319,N,422.897599,E,1,23,0.6,45.2,M,,M,,*46
$GPGGA,124406,5200.962319,N,422.897599,E,1,23,0.6,45.2,M,,M,,*45
$GPGGA,124407,5200.962319,N,422.897599,E,1,23,0.6,45.2,M,,M,,*44
$GPGGA,124408,5200.962319,N,422.897599,E,1,19,0.7,45.2,M,,M,,*43
$GPGGA,124409,5200.962319,N,422.897599,E,1,22,0.6,45.2,M,,M,,*4B
$GPGGA,124410,5200.962319,N,422.897599,E,1,22,0.6,45.2,M,,M,,*43
$GPGGA,124411,5200.962319,N,422.897599,E,1,20,0.7,45.2,M,,M,,*41
$GPGGA,124412,5200.962319,N,422.897599,E,1,21,0.7,45.2,M,,M,,*43
$GPGGA,124413,5200.96217,N,422.897426,E,1,21,0.6,45.2,M,,M,,*4B
$GPGGA,124414,5200.96217,N,422.897426,E,1,19,0.7,45.2,M,,M,,*46
$GPGGA,124415,5200.962381,N,422.897471,E,1,22,0.6,45.2,M,,M,,*40
$GPGGA,124416,5200.962381,N,422.897471,E,1,20,0.6,45.2,M,,M,,*41
$GPGGA,124417,5200.962381,N,422.897471,E,1,24,0.5,45.2,M,,M,,*47
$GPGGA,124418,5200.962381,N,422.897471,E,1,23,0.6,45.2,M,,M,,*4C
$GPGGA,124419,5200.962381,N,422.897471,E,1,22,0.6,45.2,M,,M,,*4C
$GPGGA,124420,5200.962381,N,422.897471,E,1,22,0.6,45.2,M,,M,,*46
$GPGGA,124421,5200.962381,N,422.897471,E,1,19,0.7,45.2,M,,M,,*4E
$GPGGA,124422,5200.962381,N,422.897471,E,1,23,0.6,45.2,M,,M,,*45
$GPGGA,124423,5200.962381,N,422.897471,E,1,20,0.7,45.2,M,,M,,*46
$GPGGA,124424,5200.962381,N,422.897471,E,1,21,0.7,45.2,M,,M,,*40
$GPGGA,124425,5200.962381,N,422.897471,E,1,21,0.6,45.2,M,,M,,*40
$GPGGA,124426,5200.962381,N,422.897471,E,1,11,1.6,45.2,M,,M,,*41
$GPGGA,124427,5200.962381,N,422.897471,E,1,20,0.6,45.2,M,,M,,*43
$GPGGA,124428,5200.962381,N,422.897471,E,1,20,0.7,45.2,M,,M,,*4D
$GPGGA,124429,5200.962381,N,422.897471,E,1,22,0.6,45.2,M,,M,,*4F
$GPGGA,124430,5200.962381,N,422.897471,E,1,24,0.6,45.2,M,,M,,*41
$GPGGA,124431,5200.962381,N,422.897471,E,1,17,0.8,45.2,M,,M,,*4E
$GPGGA,124432,5200.962381,N,422.897471,E,1,19,0.8,45.2,M,,M,,*43
$GPGGA,124433,5200.962381,N,422.897471,E,1,17,0.8,45.2,M,,M,,*4C
$GPGGA,124434,5200.962381,N,422.897471,E,1,17,0.7,45.2,M,,M,,*44
$GPGGA,124435,5200.962381,N,422.897471,E,1,17,0.8,45.2,M,,M,,*4A
$GPGGA,124436,5200.962381,N,422.897471,E,1,17,0.8,45.2,M,,M,,*49
$GPGGA,124437,5200.962381,N,422.897471,E,1,20,0.6,45.2,M,,M,,*42
$GPGGA,124438,5200.962381,N,422.897471,E,1,19,0.7,45.2,M,,M,,*46
$GPGGA,124439,5200.962381,N,422.897471,E,1,20,0.7,45.2,M,,M,,*4D
$GPGGA,124440,5200.962381,N,422.897471,E,1,18,0.8,45.2,M,,M,,*47
$GPGGA,124441,5200.962381,N,422.897471,E,1,20,0.7,45.2,M,,M,,*42
$GPGGA,124442,5200.962381,N,422.897471,E,1,19,0.8,45.2,M,,M,,*44
$GPGGA,124443,5200.962381,N,422.897471,E,1,21,0.6,45.2,M,,M,,*40
$GPGGA,124444,5200.962381,N,422.897471,E,1,21,0.6,45.2,M,,M,,*47
$GPGGA,124445,5200.962381,N,422.897471,E,1,19,0.7,45.2,M,,M,,*4C
$GPGGA,124446,5200.962381,N,422.897471,E,1,18,0.7,45.2,M,,M,,*4E
$GPGGA,124447,5200.962381,N,422.897471,E,1,19,0.7,45.2,M,,M,,*4E
$GPGGA,124448,5200.962381,N,422.897471,E,1,19,0.7,45.2,M,,M,,*41
$GPGGA,124449,5200.962381,N,422.897471,E,1,23,0.6,45.2,M,,M,,*48
$GPGGA,124450,5200.962381,N,422.897471,E,1,22,0.6,45.2,M,,M,,*41
$GPGGA,124451,5200.962381,N,422.897471,E,1,19,0.7,45.2,M,,M,,*49
$GPGGA,124452,5200.962381,N,422.897471,E,1,19,0.7,45.2,M,,M,,*4A
$GPGGA,124453,5200.962206,N,422.897474,E,1,22,0.6,45.2,M,,M,,*49
$GPGGA,124454,5200.962206,N,422.897474,E,1,22,0.6,45.2,M,,M,,*4E
$GPGGA,124455,5200.962318,N,422.89765,E,1,22,0.6,45.2,M,,M,,*45
$GPGGA,124456,5200.962318,N,422.89765,E,1,20,0.7,45.2,M,,M,,*45
$GPGGA,124457,5200.962318,N,422.89765,E,1,19,0.7,45.2,M,,M,,*4E
$GPGGA,124458,5200.962318,N,422.89765,E,1,23,0.6,45.2,M,,M,,*49
$GPGGA,124459,5200.962318,N,422.89765,E,1,18,0.7,45.2,M,,M,,*41
$GPGGA,124500,5200.962318,N,422.89765,E,1,19,0.7,45.2,M,,M,,*4D
$GPGGA,124501,5200.962318,N,422.89765,E,1,20,0.7,45.2,M,,M,,*46
$GPGGA,124502,5200.962318,N,422.89765,E,1,18,0.7,45.2,M,,M,,*4E
$GPGGA,124503,5200.962318,N,422.89765,E,1,16,0.8,45.2,M,,M,,*4E
$GPGGA,124523,5200.962318,N,422.89765,E,1,16,0.7,45.2,M,,M,,*43
$GPGGA,124524,5200.962318,N,422.89765,E,1,18,0.7,45.2,M,,M,,*4A
$GPGGA,124525,5200.962318,N,422.89765,E,1,19,0.7,45.2,M,,M,,*4A
$GPGGA,124526,5200.962318,N,422.89765,E,1,19,0.6,45.2,M,,M,,*48
$GPGGA,124527,5200.962318,N,422.89765,E,1,22,0.6,45.2,M,,M,,*41
$GPGGA,124528,5200.962318,N,422.89765,E,1,22,0.6,45.2,M,,M,,*4E
$GPGGA,124529,5200.962318,N,422.89765,E,1,21,0.6,45.2,M,,M,,*4C
$GPGGA,124530,5200.962318,N,422.89765,E,1,22,0.6,45.2,M,,M,,*47
$GPGGA,124531,5200.962318,N,422.89765,E,1,23,0.6,45.2,M,,M,,*47
$GPGGA,124532,5200.962318,N,422.89765,E,1,21,0.6,45.2,M,,M,,*46
$GPGGA,124533,5200.962149,N,422.897602,E,1,22,0.7,45.2,M,,M,,*44
$GPGGA,124534,5200.962149,N,422.897602,E,1,19,0.7,45.2,M,,M,,*4B
$GPGGA,124535,5200.962149,N,422.897602,E,1,19,0.7,45.2,M,,M,,*4A
$GPGGA,124536,5200.962149,N,422.897602,E,1,21,0.6,45.2,M,,M,,*43
$GPGGA,124537,5200.962149,N,422.897602,E,1,19,0.7,45.2,M,,M,,*48
$GPGGA,124538,5200.962149,N,422.897602,E,1,23,0.6,45.2,M,,M,,*4F
$GPGGA,124539,5200.962149,N,422.897602,E,1,25,0.5,45.2,M,,M,,*4B
$GPGGA,124540,5200.962149,N,422.897602,E,1,24,0.6,45.2,M,,M,,*47
$GPGGA,124541,5200.962149,N,422.897602,E,1,21,0.6,45.2,M,,M,,*43
$GPGGA,124542,5200.962149,N,422.897602,E,1,22,0.6,45.2,M,,M,,*43
$GPGGA,124543,5200.962149,N,422.897602,E,1,22,0.6,45.2,M,,M,,*42
$GPGGA,124544,5200.962149,N,422.897602,E,1,19,0.7,45.2,M,,M,,*4C
$GPGGA,124545,5200.962149,N,422.897602,E,1,20,0.7,45.2,M,,M,,*47
$GPGGA,124546,5200.962149,N,422.897602,E,1,20,0.7,45.2,M,,M,,*44
$GPGGA,124547,5200.962149,N,422.897602,E,1,19,0.7,45.2,M,,M,,*4F
$GPGGA,124548,5200.962149,N,422.897602,E,1,22,0.6,45.2,M,,M,,*49
$GPGGA,124549,5200.962149,N,422.897602,E,1,24,0.6,45.2,M,,M,,*4E
$GPGGA,124550,5200.962149,N,422.897602,E,1,20,0.6,45.2,M,,M,,*42
$GPGGA,124551,5200.962149,N,422.897602,E,1,23,0.6,45.2,M,,M,,*40
$GPGGA,124552,5200.962149,N,422.897602,E,1,16,0.8,45.2,M,,M,,*4B
$GPGGA,124553,5200.962037,N,422.897686,E,1,21,0.6,45.2,M,,M,,*44
$GPGGA,124554,5200.962037,N,422.897686,E,1,23,0.6,45.2,M,,M,,*41
$GPGGA,124555,5200.962037,N,422.897686,E,1,23,0.6,45.2,M,,M,,*40
$GPGGA,124556,5200.962037,N,422.897686,E,1,19,0.7,45.2,M,,M,,*4B
$GPGGA,124557,5200.962037,N,422.897686,E,1,16,0.8,45.2,M,,M,,*4A
$GPGGA,124558,5200.962037,N,422.897686,E,1,20,0.6,45.2,M,,M,,*4E
$GPGGA,124559,5200.962037,N,422.897686,E,1,17,0.8,45.2,M,,M,,*45
$GPGGA,124600,5200.962037,N,422.897686,E,1,20,0.6,45.2,M,,M,,*40
$GPGGA,124601,5200.962037,N,422.897686,E,1,20,0.7,45.2,M,,M,,*40
$GPGGA,124602,5200.962037,N,422.897686,E,1,18,0.7,45.2,M,,M,,*48
$GPGGA,124603,5200.962037,N,422.897686,E,1,16,0.8,45.2,M,,M,,*48
$GPGGA,124604,5200.962037,N,422.897686,E,1,21,0.7,45.2,M,,M,,*44
$GPGGA,124605,5200.962037,N,422.897686,E,1,21,0.7,45.2,M,,M,,*45
$GPGGA,124606,5200.962037,N,422.897686,E,1,21,0.7,45.2,M,,M,,*46
$GPGGA,124607,5200.962037,N,422.897686,E,1,19,0.7,45.2,M,,M,,*4C
$GPGGA,124608,5200.962037,N,422.897686,E,1,23,0.6,45.2,M,,M,,*4B
$GPGGA,124609,5200.962037,N,422.897686,E,1,18,0.7,45.2,M,,M,,*43
$GPGGA,124610,5200.962037,N,422.897686,E,1,22,0.6,45.2,M,,M,,*43
$GPGGA,124611,5200.962037,N,422.897686,E,1,21,0.6,45.2,M,,M,,*41
$GPGGA,124612,5200.962037,N,422.897686,E,1,23,0.6,45.2,M,,M,,*40
$GPGGA,124613,5200.961954,N,422.897521,E,1,22,0.6,45.2,M,,M,,*41
$GPGGA,124614,5200.961954,N,422.897521,E,1,21,0.6,45.2,M,,M,,*45
$GPGGA,124615,5200.961954,N,422.897521,E,1,20,0.6,45.2,M,,M,,*45
$GPGGA,124616,5200.961954,N,422.897521,E,1,20,0.6,45.2,M,,M,,*46
$GPGGA,124617,5200.961954,N,422.897521,E,1,19,0.7,45.2,M,,M,,*4C
$GPGGA,124618,5200.961954,N,422.897521,E,1,19,0.7,45.2,M,,M,,*43
$GPGGA,124619,5200.961954,N,422.897521,E,1,21,0.6,45.2,M,,M,,*48
$GPGGA,124620,5200.961954,N,422.897521,E,1,18,0.8,45.2,M,,M,,*46
$GPGGA,124621,5200.961954,N,422.897521,E,1,19,0.7,45.2,M,,M,,*49
$GPGGA,124622,5200.961954,N,422.897521,E,1,19,0.7,45.2,M,,M,,*4A
$GPGGA,124623,5200.961954,N,422.897521,E,1,21,0.7,45.2,M,,M,,*40
$GPGGA,124624,5200.961954,N,422.897521,E,1,19,0.7,45.2,M,,M,,*4C
$GPGGA,124625,5200.961954,N,422.897521,E,1,18,0.7,45.2,M,,M,,*4C
$GPGGA,124626,5200.961954,N,422.897521,E,1,23,0.6,45.2,M,,M,,*46
$GPGGA,124627,5200.961954,N,422.897521,E,1,23,0.6,45.2,M,,M,,*47
$GPGGA,124628,5200.961954,N,422.897521,E,1,23,0.6,45.2,M,,M,,*48
$GPGGA,124629,5200.961954,N,422.897521,E,1,21,0.6,45.2,M,,M,,*4B
$GPGGA,124630,5200.961954,N,422.897521,E,1,22,0.6,45.2,M,,M,,*40
$GPGGA,124631,5200.961954,N,422.897521,E,1,21,0.6,45.2,M,,M,,*42
$GPGGA,124632,5200.961954,N,422.897521,E,1,21,0.7,45.2,M,,M,,*40
$GPGGA,124633,5200.961921,N,422.897507,E,1,19,0.7,45.2,M,,M,,*4C
$GPGGA,124634,5200.961921,N,422.897507,E,1,22,0.6,45.2,M,,M,,*42
$GPGGA,124635,5200.961921,N,422.897507,E,1,23,0.6,45.2,M,,M,,*42
$GPGGA,124636,5200.961921,N,422.897507,E,1,23,0.6,45.2,M,,M,,*41
$GPGGA,124637,5200.961921,N,422.897507,E,1,23,0.6,45.2,M,,M,,*40
$GPGGA,124638,5200.961921,N,422.897507,E,1,21,0.6,45.2,M,,M,,*4D
$GPGGA,124639,5200.961921,N,422.897507,E,1,23,0.6,45.2,M,,M,,*4E
$GPGGA,124640,5200.961921,N,422.897507,E,1,24,0.6,45.2,M,,M,,*47
$GPGGA,124641,5200.961921,N,422.897507,E,1,23,0.6,45.2,M,,M,,*41
$GPGGA,124642,5200.961921,N,422.897507,E,1,22,0.7,45.2,M,,M,,*42
$GPGGA,124643,5200.961921,N,422.897507,E,1,23,0.6,45.2,M,,M,,*43
$GPGGA,124644,5200.961921,N,422.897507,E,1,23,0.6,45.2,M,,M,,*44
$GPGGA,124645,5200.961921,N,422.897507,E,1,24,0.6,45.2,M,,M,,*42
$GPGGA,124646,5200.961921,N,422.897507,E,1,22,0.6,45.2,M,,M,,*47
$GPGGA,124647,5200.961921,N,422.897507,E,1,20,0.7,45.2,M,,M,,*45
$GPGGA,124648,5200.961921,N,422.897507,E,1,20,0.7,45.2,M,,M,,*4A
$GPGGA,124649,5200.961921,N,422.897507,E,1,21,0.6,45.2,M,,M,,*4B
$GPGGA,124650,5200.961921,N,422.897507,E,1,24,0.6,45.2,M,,M,,*46
$GPGGA,124651,5200.961921,N,422.897507,E,1,21,0.7,45.2,M,,M,,*43
$GPGGA,124652,5200.961921,N,422.897507,E,1,22,0.6,45.2,M,,M,,*42
$GPGGA,124653,5200.961916,N,422.897305,E,1,23,0.6,45.2,M,,M,,*42
$GPGGA,124654,5200.961916,N,422.897305,E,1,21,0.7,45.2,M,,M,,*46
$GPGGA,124655,5200.962122,N,422.897345,E,1,23,0.6,45.2,M,,M,,*4C
$GPGGA,124656,5200.962122,N,422.897345,E,1,23,0.6,45.2,M,,M,,*4F
$GPGGA,124657,5200.962122,N,422.897345,E,1,20,0.6,45.2,M,,M,,*4D
$GPGGA,124658,5200.962122,N,422.897345,E,1,18,0.7,45.2,M,,M,,*48
$GPGGA,124659,5200.962122,N,422.897345,E,1,19,0.7,45.2,M,,M,,*48
$GPGGA,124700,5200.962122,N,422.897345,E,1,23,0.6,45.2,M,,M,,*4D
$GPGGA,124701,5200.962122,N,422.897345,E,1,22,0.6,45.2,M,,M,,*4D
$GPGGA,124702,5200.962122,N,422.897345,E,1,21,0.7,45.2,M,,M,,*4C
$GPGGA,124703,5200.962122,N,422.897345,E,1,21,0.7,45.2,M,,M,,*4D
$GPGGA,124704,5200.962122,N,422.897345,E,1,21,0.7,45.2,M,,M,,*4A
$GPGGA,124705,5200.962122,N,422.897345,E,1,21,0.7,45.2,M,,M,,*4B
$GPGGA,124706,5200.962122,N,422.897345,E,1,22,0.6,45.2,M,,M,,*4A
$GPGGA,124707,5200.962122,N,422.897345,E,1,21,0.6,45.2,M,,M,,*48
$GPGGA,124708,5200.962122,N,422.897345,E,1,21,0.7,45.2,M,,M,,*46
$GPGGA,124709,5200.962122,N,422.897345,E,1,23,0.6,45.2,M,,M,,*44
$GPGGA,124710,5200.962122,N,422.897345,E,1,22,0.7,45.2,M,,M,,*4C
$GPGGA,124711,5200.962122,N,422.897345,E,1,22,0.6,45.2,M,,M,,*4C
$GPGGA,124712,5200.962122,N,422.897345,E,1,22,0.7,45.2,M,,M,,*4E
$GPGGA,124713,5200.962016,N,422.897184,E,1,22,0.7,45.2,M,,M,,*46
$GPGGA,124714,5200.962016,N,422.897184,E,1,23,0.6,45.2,M,,M,,*41
$GPGGA,124715,5200.962016,N,422.897184,E,1,22,0.6,45.2,M,,M,,*41
$GPGGA,124716,5200.962016,N,422.897184,E,1,22,0.6,45.2,M,,M,,*42
$GPGGA,124717,5200.962016,N,422.897184,E,1,21,0.6,45.2,M,,M,,*40
$GPGGA,124718,5200.962016,N,422.897184,E,1,21,0.6,45.2,M,,M,,*4F
$GPGGA,124719,5200.962016,N,422.897184,E,1,19,0.7,45.2,M,,M,,*44
$GPGGA,124720,5200.962016,N,422.897184,E,1,21,0.7,45.2,M,,M,,*45
$GPGGA,124721,5200.962016,N,422.897184,E,1,20,0.6,45.2,M,,M,,*44
$GPGGA,124722,5200.962016,N,422.897184,E,1,20,0.7,45.2,M,,M,,*46
$GPGGA,124723,5200.962016,N,422.897184,E,1,20,0.7,45.2,M,,M,,*47
$GPGGA,124724,5200.962016,N,422.897184,E,1,23,0.6,45.2,M,,M,,*42
$GPGGA,124725,5200.962016,N,422.897184,E,1,19,0.7,45.2,M,,M,,*4B
$GPGGA,124726,5200.962016,N,422.897184,E,1,20,0.7,45.2,M,,M,,*42
$GPGGA,124727,5200.962016,N,422.897184,E,1,20,0.7,45.2,M,,M,,*43
$GPGGA,124728,5200.962016,N,422.897184,E,1,21,0.6,45.2,M,,M,,*4C
$GPGGA,124729,5200.962016,N,422.897184,E,1,20,0.7,45.2,M,,M,,*4D
$GPGGA,124730,5200.962016,N,422.897184,E,1,21,0.6,45.2,M,,M,,*45
$GPGGA,124731,5200.962016,N,422.897184,E,1,21,0.7,45.2,M,,M,,*45
$GPGGA,124732,5200.962016,N,422.897184,E,1,19,0.7,45.2,M,,M,,*4D
$GPGGA,124733,5200.961973,N,422.897323,E,1,23,0.6,45.2,M,,M,,*42
$GPGGA,124734,5200.961973,N,422.897323,E,1,19,0.7,45.2,M,,M,,*4D
$GPGGA,124735,5200.961973,N,422.897323,E,1,23,0.6,45.2,M,,M,,*44
$GPGGA,124736,5200.961973,N,422.897323,E,1,22,0.6,45.2,M,,M,,*46
$GPGGA,124737,5200.961973,N,422.897323,E,1,21,0.6,45.2,M,,M,,*44
$GPGGA,124738,5200.961973,N,422.897323,E,1,21,0.7,45.2,M,,M,,*4A
$GPGGA,124739,5200.961973,N,422.897323,E,1,22,0.6,45.2,M,,M,,*49
$GPGGA,124740,5200.961973,N,422.897323,E,1,20,0.7,45.2,M,,M,,*44
$GPGGA,124741,5200.961973,N,422.897323,E,1,22,0.7,45.2,M,,M,,*47
$GPGGA,124742,5200.961973,N,422.897323,E,1,20,0.7,45.2,M,,M,,*46
$GPGGA,124743,5200.961973,N,422.897323,E,1,20,0.7,45.2,M,,M,,*47
$GPGGA,124744,5200.961973,N,422.897323,E,1,19,0.7,45.2,M,,M,,*4A
$GPGGA,124745,5200.961973,N,422.897323,E,1,20,0.7,45.2,M,,M,,*41
$GPGGA,124746,5200.961973,N,422.897323,E,1,21,0.7,45.2,M,,M,,*43
$GPGGA,124747,5200.961973,N,422.897323,E,1,22,0.6,45.2,M,,M,,*40
$GPGGA,124748,5200.961973,N,422.897323,E,1,21,0.6,45.2,M,,M,,*4C
$GPGGA,124749,5200.961973,N,422.897323,E,1,22,0.6,45.2,M,,M,,*4E
$GPGGA,124750,5200.961973,N,422.897323,E,1,21,0.7,45.2,M,,M,,*44
$GPGGA,124751,5200.961973,N,422.897323,E,1,22,0.6,45.2,M,,M,,*47
$GPGGA,124752,5200.961973,N,422.897323,E,1,23,0.6,45.2,M,,M,,*45
$GPGGA,124753,5200.961901,N,422.897237,E,1,22,0.6,45.2,M,,M,,*44
$GPGGA,124754,5200.961901,N,422.897237,E,1,21,0.7,45.2,M,,M,,*41
$GPGGA,124755,5200.962144,N,422.897329,E,1,20,0.6,45.2,M,,M,,*44
$GPGGA,124756,5200.962144,N,422.897329,E,1,21,0.7,45.2,M,,M,,*47
$GPGGA,124757,5200.962144,N,422.897329,E,1,22,0.6,45.2,M,,M,,*44
$GPGGA,124758,5200.962144,N,422.897329,E,1,21,0.7,45.2,M,,M,,*49
$GPGGA,124759,5200.962144,N,422.897329,E,1,20,0.7,45.2,M,,M,,*49
$GPGGA,124800,5200.962144,N,422.897329,E,1,20,0.7,45.2,M,,M,,*4A
$GPGGA,124801,5200.962144,N,422.897329,E,1,20,0.7,45.2,M,,M,,*4B
$GPGGA,124802,5200.962144,N,422.897329,E,1,20,0.7,45.2,M,,M,,*48
$GPGGA,124803,5200.962144,N,422.897329,E,1,19,0.7,45.2,M,,M,,*43
$GPGGA,124804,5200.962144,N,422.897329,E,1,22,0.6,45.2,M,,M,,*4D
$GPGGA,124805,5200.962144,N,422.897329,E,1,19,0.6,45.2,M,,M,,*44
$GPGGA,124806,5200.962144,N,422.897329,E,1,21,0.6,45.2,M,,M,,*4C
$GPGGA,124807,5200.962144,N,422.897329,E,1,22,0.6,45.2,M,,M,,*4E
$GPGGA,124808,5200.962144,N,422.897329,E,1,24,0.6,45.2,M,,M,,*47
$GPGGA,124809,5200.962144,N,422.897329,E,1,20,0.7,45.2,M,,M,,*43
$GPGGA,124810,5200.962144,N,422.897329,E,1,20,0.7,45.2,M,,M,,*4B
$GPGGA,124811,5200.962144,N,422.897329,E,1,22,0.6,45.2,M,,M,,*49
$GPGGA,124812,5200.962144,N,422.897329,E,1,19,0.7,45.2,M,,M,,*43
$GPGGA,124813,5200.962058,N,422.897129,E,1,20,0.7,45.2,M,,M,,*46
$GPGGA,124814,5200.962058,N,422.897129,E,1,18,0.8,45.2,M,,M,,*45
$GPGGA,124815,5200.962058,N,422.897129,E,1,21,0.7,45.2,M,,M,,*41
$GPGGA,124816,5200.962058,N,422.897129,E,1,21,0.7,45.2,M,,M,,*42
$GPGGA,124817,5200.962058,N,422.897129,E,1,19,0.7,45.2,M,,M,,*48
$GPGGA,124818,5200.962058,N,422.897129,E,1,23,0.6,45.2,M,,M,,*4F
$GPGGA,124819,5200.962058,N,422.897129,E,1,21,0.6,45.2,M,,M,,*4C
$GPGGA,124820,5200.962058,N,422.897129,E,1,16,0.9,45.2,M,,M,,*4D
$GPGGA,124821,5200.962058,N,422.897129,E,1,17,0.9,45.2,M,,M,,*4D
$GPGGA,124822,5200.962058,N,422.897129,E,1,21,0.7,45.2,M,,M,,*45
$GPGGA,124823,5200.962058,N,422.897129,E,1,21,0.7,45.2,M,,M,,*44
$GPGGA,124824,5200.962058,N,422.897129,E,1,22,0.7,45.2,M,,M,,*40
$GPGGA,124825,5200.962058,N,422.897129,E,1,21,0.7,45.2,M,,M,,*42
$GPGGA,124826,5200.962058,N,422.897129,E,1,23,0.6,45.2,M,,M,,*42
$GPGGA,124827,5200.962058,N,422.897129,E,1,22,0.6,45.2,M,,M,,*42
$GPGGA,124828,5200.962058,N,422.897129,E,1,22,0.6,45.2,M,,M,,*4D
$GPGGA,124829,5200.962058,N,422.897129,E,1,22,0.6,45.2,M,,M,,*4C
$GPGGA,124830,5200.962058,N,422.897129,E,1,21,0.7,45.2,M,,M,,*46
$GPGGA,124831,5200.962058,N,422.897129,E,1,20,0.7,45.2,M,,M,,*46
$GPGGA,124832,5200.962058,N,422.897129,E,1,21,0.6,45.2,M,,M,,*45
$GPGGA,124833,5200.961962,N,422.897155,E,1,22,0.6,45.2,M,,M,,*4F
$GPGGA,124834,5200.961962,N,422.897155,E,1,21,0.6,45.2,M,,M,,*4B
$GPGGA,124835,5200.962057,N,422.897318,E,1,21,0.6,45.2,M,,M,,*4D
$GPGGA,124836,5200.962057,N,422.897318,E,1,25,0.5,45.2,M,,M,,*49
$GPGGA,124837,5200.962057,N,422.897318,E,1,21,0.6,45.2,M,,M,,*4F
$GPGGA,124838,5200.962057,N,422.897318,E,1,20,0.6,45.2,M,,M,,*41
$GPGGA,124839,5200.962057,N,422.897318,E,1,20,0.6,45.2,M,,M,,*40
$GPGGA,124840,5200.962057,N,422.897318,E,1,22,0.6,45.2,M,,M,,*4C
$GPGGA,124841,5200.962057,N,422.897318,E,1,19,0.6,45.2,M,,M,,*45
$GPGGA,124842,5200.962057,N,422.897318,E,1,15,0.8,45.2,M,,M,,*44
$GPGGA,124843,5200.962057,N,422.897318,E,1,19,0.7,45.2,M,,M,,*46
$GPGGA,124844,5200.962057,N,422.897318,E,1,20,0.7,45.2,M,,M,,*4B
$GPGGA,124845,5200.962057,N,422.897318,E,1,22,0.6,45.2,M,,M,,*49
$GPGGA,124846,5200.962057,N,422.897318,E,1,19,0.7,45.2,M,,M,,*43
$GPGGA,124847,5200.962057,N,422.897318,E,1,16,0.7,45.2,M,,M,,*4D
$GPGGA,124848,5200.962057,N,422.897318,E,1,16,0.8,45.2,M,,M,,*4D
$GPGGA,124849,5200.962057,N,422.897318,E,1,20,0.7,45.2,M,,M,,*46
$GPGGA,124850,5200.962057,N,422.897318,E,1,20,0.6,45.2,M,,M,,*4F
$GPGGA,124851,5200.962057,N,422.897318,E,1,18,0.7,45.2,M,,M,,*44
$GPGGA,124852,5200.962057,N,422.897318,E,1,20,0.6,45.2,M,,M,,*4D
$GPGGA,124853,5200.962057,N,422.897318,E,1,20,0.6,45.2,M,,M,,*4C
$GPGGA,124854,5200.962057,N,422.897318,E,1,20,0.7,45.2,M,,M,,*4A
$GPGGA,124855,5200.962194,N,422.89748,E,1,19,0.7,45.2,M,,M,,*49
$GPGGA,124856,5200.962194,N,422.89748,E,1,18,0.8,45.2,M,,M,,*44
$GPGGA,124857,5200.962194,N,422.89748,E,1,18,0.8,45.2,M,,M,,*45
$GPGGA,124858,5200.962194,N,422.89748,E,1,21,0.6,45.2,M,,M,,*4E
$GPGGA,124859,5200.962194,N,422.89748,E,1,19,0.7,45.2,M,,M,,*45
$GPGGA,124900,5200.962194,N,422.89748,E,1,17,0.7,45.2,M,,M,,*46
$GPGGA,124901,5200.962194,N,422.89748,E,1,19,0.7,45.2,M,,M,,*49
$GPGGA,124902,5200.962194,N,422.89748,E,1,19,0.7,45.2,M,,M,,*4A
$GPGGA,124903,5200.962194,N,422.89748,E,1,17,0.7,45.2,M,,M,,*45
$GPGGA,124904,5200.962194,N,422.89748,E,1,16,0.8,45.2,M,,M,,*4C
$GPGGA,124905,5200.962194,N,422.89748,E,1,24,0.6,45.2,M,,M,,*42
$GPGGA,124906,5200.962194,N,422.89748,E,1,21,0.6,45.2,M,,M,,*44
$GPGGA,124907,5200.962194,N,422.89748,E,1,18,0.7,45.2,M,,M,,*4E
$GPGGA,124908,5200.962194,N,422.89748,E,1,18,0.8,45.2,M,,M,,*4E
$GPGGA,124909,5200.962194,N,422.89748,E,1,17,0.8,45.2,M,,M,,*40
$GPGGA,124910,5200.962194,N,422.89748,E,1,18,0.7,45.2,M,,M,,*48
$GPGGA,124911,5200.962194,N,422.89748,E,1,19,0.8,45.2,M,,M,,*47
$GPGGA,124912,5200.962194,N,422.89748,E,1,19,0.7,45.2,M,,M,,*4B
$GPGGA,124913,5200.962166,N,422.897273,E,1,16,0.8,45.2,M,,M,,*4D
$GPGGA,124914,5200.962166,N,422.897273,E,1,19,0.7,45.2,M,,M,,*4A
$GPGGA,124915,5200.962201,N,422.897319,E,1,18,0.7,45.2,M,,M,,*45
$GPGGA,124916,5200.962201,N,422.897319,E,1,16,0.8,45.2,M,,M,,*47
$GPGGA,124917,5200.962201,N,422.897319,E,1,17,0.7,45.2,M,,M,,*48
$GPGGA,124918,5200.962201,N,422.897319,E,1,17,0.7,45.2,M,,M,,*47
$GPGGA,124919,5200.962201,N,422.897319,E,1,17,0.7,45.2,M,,M,,*46
$GPGGA,124920,5200.962201,N,422.897319,E,1,19,0.7,45.2,M,,M,,*42
$GPGGA,124921,5200.962201,N,422.897319,E,1,18,0.7,45.2,M,,M,,*42
$GPGGA,124922,5200.962201,N,422.897319,E,1,19,0.7,45.2,M,,M,,*40
$GPGGA,124923,5200.962201,N,422.897319,E,1,18,0.7,45.2,M,,M,,*40
$GPGGA,124924,5200.962201,N,422.897319,E,1,18,0.7,45.2,M,,M,,*47
$GPGGA,124925,5200.962201,N,422.897319,E,1,16,0.7,45.2,M,,M,,*48
$GPGGA,124926,5200.962201,N,422.897319,E,1,17,0.8,45.2,M,,M,,*45
$GPGGA,124927,5200.962201,N,422.897319,E,1,18,0.7,45.2,M,,M,,*44
$GPGGA,124928,5200.962201,N,422.897319,E,1,19,0.7,45.2,M,,M,,*4A
$GPGGA,124929,5200.962201,N,422.897319,E,1,18,0.7,45.2,M,,M,,*4A
$GPGGA,124930,5200.962201,N,422.897319,E,1,17,0.7,45.2,M,,M,,*4D
$GPGGA,124931,5200.962201,N,422.897319,E,1,19,0.7,45.2,M,,M,,*42
$GPGGA,124932,5200.962201,N,422.897319,E,1,19,0.7,45.2,M,,M,,*41
$GPGGA,124933,5200.962201,N,422.897319,E,1,18,0.7,45.2,M,,M,,*41
$GPGGA,124934,5200.962201,N,422.897319,E,1,18,0.7,45.2,M,,M,,*46
$GPGGA,124935,5200.962294,N,422.89748,E,1,19,0.7,45.2,M,,M,,*4D
$GPGGA,124936,5200.962294,N,422.89748,E,1,20,0.7,45.2,M,,M,,*44
$GPGGA,124937,5200.962294,N,422.89748,E,1,22,0.6,45.2,M,,M,,*46
$GPGGA,124938,5200.962294,N,422.89748,E,1,24,0.6,45.2,M,,M,,*4F
$GPGGA,124939,5200.962294,N,422.89748,E,1,21,0.6,45.2,M,,M,,*4B
